name_norm,latitude,longitude,country,is_city,is_main_station,is_airport
Entzheim Aeroport,48.54699,7.62794,France,FAUX,FAUX,VRAI
Aeroport Paris Roissy Charles de Gaulle CDG,49.00412433626132,2.5707364082336426,France,FAUX,FAUX,VRAI
Lyon St-Exupery TGV,45.721109,5.074969,France,FAUX,FAUX,VRAI
Aeroport Marseille-Provence Bus,43.44129735202746,5.237088203430176,France,FAUX,FAUX,VRAI
Brussels-Airport-Zaventem,50.8985400058829,4.483022689819336,Belgique,FAUX,FAUX,VRAI
Geneve Aeroport,46.232376,6.112098,Suisse,FAUX,FAUX,VRAI
Frankfurt (M) Flughafen,50.051209,8.570971,Allemagne,FAUX,FAUX,VRAI
Berlin-Schonefeld Flughafen,52.391641,13.513178,Allemagne,FAUX,FAUX,VRAI
Dusseldorf Flughafen,51.292008,6.786837,Allemagne,FAUX,FAUX,VRAI
Frankfurt (M) Flughafen Fernbf,50.05290581298199,8.569872379302979,Allemagne,FAUX,FAUX,VRAI
Koln/Bonn Flughafen,50.8789,7.119303,Allemagne,FAUX,FAUX,VRAI
Southampton Airport Parkway,50.950638,-1.36362,Royaume-Uni,FAUX,FAUX,VRAI
Gatwick-Airport,NA,NA,Royaume-Uni,FAUX,FAUX,VRAI
Gatwick Airport,51.156425,-0.161022,Royaume-Uni,FAUX,FAUX,VRAI 
Gatwick Airport,NA,NA,Royaume-Uni,FAUX,FAUX,VRAI
Luton Airport,51.880918,-0.413341,Royaume-Uni,FAUX,FAUX,VRAI
Manchester Airport,53.361568,-2.268941,Royaume-Uni,FAUX,FAUX,VRAI
Stansted Airport,51.888979,0.26162,Royaume-Uni,FAUX,FAUX,VRAI
Heathrow Airport,51.478443,-0.46134,Royaume-Uni,FAUX,FAUX,VRAI
London City Airport,NA,NA,Royaume-Uni,FAUX,FAUX,VRAI
Schiphol Airport,52.308787,4.761487,Pays-Bas,FAUX,FAUX,VRAI
Aeroport de Beauvais-Tille,49.459460144878,2.11222350597382,France,FAUX,FAUX,VRAI
Aeroport-d'Orly-Val,NA,NA,France,FAUX,FAUX,VRAI
Vitrolles Aeroport Marseille-Provence TER,43.441734,5.237122,France,FAUX,FAUX,VRAI
Roissy-Aeroport-CDG 2,NA,NA,France,FAUX,FAUX,VRAI
Aeroport-Charles-de-Gaulle-1,49.00956,2.56135,France,FAUX,FAUX,VRAI
Aeroport Paris Orly,48.7294,2.3681,France,FAUX,FAUX,VRAI
Aeroport-d'Orly,NA,NA,France,FAUX,FAUX,VRAI
Aeroport-Charles-de-Gaulle-2-S,NA,NA,France,FAUX,FAUX,VRAI
Aeroport-Charles-de-Gaulle-2-RER,49.003652,2.570892,France,FAUX,FAUX,VRAI
Pont-de-Rungis-Aeroport-d'Orly,48.748163,2.372792,France,FAUX,FAUX,VRAI
Aeroport Paris Orly Sud,48.729,2.3699,France,FAUX,FAUX,VRAI
Aeroport-Charles-de-Gaulle,NA,NA,France,FAUX,FAUX,VRAI
Aulnat Aeroport,45.7920571,3.1614332,France,FAUX,FAUX,VRAI
Aeroport-Lyon-Saint-Exupery,NA,NA,France,FAUX,FAUX,VRAI
Dusseldorf Flughafen Terminal,51.276538,6.767043,Allemagne,FAUX,FAUX,VRAI
Friedrichshafen Flughafen,47.672214,9.523711,Allemagne,FAUX,FAUX,VRAI
Hamburg Airport,53.633168,10.006405,Allemagne,FAUX,FAUX,VRAI
Hannover Flughafen,52.459302,9.700817,Allemagne,FAUX,FAUX,VRAI
Koln Airport-Businesspark,50.910281,7.04445,Allemagne,FAUX,FAUX,VRAI
Lubeck Flughafen,53.803181,10.69772,Allemagne,FAUX,FAUX,VRAI
Munchen Flughafen Besucherpark,48.352023,11.764488,Allemagne,FAUX,FAUX,VRAI
Stuttgart Flughafen/Messe,48.690647,9.192629,Allemagne,FAUX,FAUX,VRAI
Berlin Brandenburg Flughafen,52.365641,13.5125,Allemagne,FAUX,FAUX,VRAI
Dresden Flughafen,51.124854,13.766224,Allemagne,FAUX,FAUX,VRAI
Leipzig/Halle Flughafen,51.42334,12.223423,Allemagne,FAUX,FAUX,VRAI
Frankfurt (M) Flughafen Regionalbf,50.051218,8.57125,Allemagne,FAUX,FAUX,VRAI
Nurnberg Flughafen,49.493392,11.078629,Allemagne,FAUX,FAUX,VRAI
Munchen Flughafen Terminal 1,48.353362,11.786152,Allemagne,FAUX,FAUX,VRAI
Munchen Flughafen Terminal 2,48.355682,11.790116,Allemagne,FAUX,FAUX,VRAI
Munchen Flughafen Terminal2 Ankunftebene Halt22,48.353327,11.786125,Allemagne,FAUX,FAUX,VRAI
Munchen Flughafen Terminal MVV,NA,NA,Allemagne,FAUX,FAUX,VRAI
Munchen Flughafen Besucherpark Bahnhof,NA,NA,Allemagne,FAUX,FAUX,VRAI
Dusseldorf Flughafen,51.277706,6.767286,Allemagne,FAUX,FAUX,VRAI
Berlin Flughafen Tegel,52.554085,13.292403,Allemagne,FAUX,FAUX,VRAI
Bourges Aeroport,47.036299,2.316807,France,FAUX,FAUX,VRAI
Roissypole,49.193944,2.757845,France,FAUX,FAUX,VRAI
Aeroport CDG T,49.013306,2.542104,France,FAUX,FAUX,VRAI
Zurich Flughafen,47.450279,8.562333,Suisse,FAUX,FAUX,VRAI
Zurich Flughafen Bahnhof,47.450432,8.563726,Suisse,FAUX,FAUX,VRAI
Roma Fiumicino Aeroporto,41.793493,12.251865,Italie,FAUX,FAUX,VRAI
Palermo-Punta Raisi Aeroporto,38.188738,13.109985,Italie,FAUX,FAUX,VRAI
Caselle Torinese Aeroporto,45.19185940593988,7.641624212265015,Italie,FAUX,FAUX,VRAI
Kastrup Lufthavn St.,55.629609,12.649377,Danemark,FAUX,FAUX,VRAI
Hahn Flughafen Terminal 2,49.946853,7.270996,Allemagne,FAUX,FAUX,VRAI
Lubeck Flughafen,NA,NA,Allemagne,FAUX,FAUX,VRAI
Flughafen Wien,48.120833,16.563056,Autriche,FAUX,FAUX,VRAI
Reggio di Calabria Aeroporto,38.06747285,15.6518808342914,Italie,FAUX,FAUX,VRAI
Elmas Aeroporto,39.2571822,9.0629485,Italie,FAUX,FAUX,VRAI
Pisa Aeroporto,43.698969,10.400705,Italie,FAUX,FAUX,VRAI
Roma Ciampino Aeroporto,41.80423809568812,12.59955883026123,Italie,FAUX,FAUX,VRAI
Malaga Aeropuerto,36.675646,-4.487032,Espagne,FAUX,FAUX,VRAI
Aeropuerto Alacant-Altet Bus,38.287366,-0.559905,Espagne,FAUX,FAUX,VRAI
Jerez-Aeropuerto,36.751381,-6.066325,Espagne,FAUX,FAUX,VRAI
Madrid-Barajas T4,40.49172,-3.593599,Espagne,FAUX,FAUX,VRAI
Heathrow Terminal 4 Bus,51.459275,-0.44662,Royaume-Uni,FAUX,FAUX,VRAI
Heathrow Terminal 4 Rail,51.458214,-0.445447,Royaume-Uni,FAUX,FAUX,VRAI
Heathrow Terminal 5 Rail,51.47,-0.48,Royaume-Uni,FAUX,FAUX,VRAI
Luton Airport Parkway,51.871159,-0.393485,Royaume-Uni,FAUX,FAUX,VRAI
Prestwick International Airport,55.511513,-4.616166,Royaume-Uni,FAUX,FAUX,VRAI
Rhoose Cardiff Airport,51.387454,-3.347599,Royaume-Uni,FAUX,FAUX,VRAI
Southend Airport,51.5687,0.704084,Royaume-Uni,FAUX,FAUX,VRAI
Teesside Airport,54.518147,-1.425305,Royaume-Uni,FAUX,FAUX,VRAI
Glasgow Airport,55.865803,-4.432114,Royaume-Uni,FAUX,FAUX,VRAI
Heathrow Terminal 5 Bus,51.47,-0.48,Royaume-Uni,FAUX,FAUX,VRAI
Heathrow Terminals 1-2-3 Bus,51.471,-0.456,Royaume-Uni,FAUX,FAUX,VRAI
Newcastle Airport,55.03588,-1.71209,Royaume-Uni,FAUX,FAUX,VRAI
Cardiff International Airport,51.396667,-3.343333,Royaume-Uni,FAUX,FAUX,VRAI
Edinburgh Airport,55.95,-3.3725,Royaume-Uni,FAUX,FAUX,VRAI
Bergamo-Orio al Serio Aeroporto,45.6714082,9.693355,Italie,FAUX,FAUX,VRAI
Malpensa Aeroporto T2,45.646821,8.723376,Italie,FAUX,FAUX,VRAI
Lamezia Terme Aeroporto,38.90539,16.24227,Italie,FAUX,FAUX,VRAI
Malpensa Aeroporto,45.627934,8.710828,Italie,FAUX,FAUX,VRAI
Flughafen Graz-Feldkirchen,46.997636,15.449643,Autriche,FAUX,FAUX,VRAI
Aeroport Paris Roissy Charles de Gaulle CDG T2 B-D,49.00406,2.56461,France,FAUX,FAUX,VRAI
Aeroport Paris Roissy Charles de Gaulle CDG T2 E-F,49.00422,2.57701,France,FAUX,FAUX,VRAI
Aeroport Paris Roissy Charles de Gaulle CDG T1,49.004607,2.579707,France,FAUX,FAUX,VRAI
Wien Flughafen (CAT),48.120833,16.563056,Autriche,FAUX,FAUX,VRAI
Basel EuroAirport,47.600729,7.531714,France,FAUX,FAUX,VRAI
Gothenburg Airport (Landvetter),57.668799,12.292314,Suède,FAUX,FAUX,VRAI
Stockholm Airport (Arlanda),59.6497622,17.9237807,Suède,FAUX,FAUX,VRAI
Frankfurt Hahn,49.946788,7.270911,Allemagne,FAUX,FAUX,VRAI
Napoli Capodichino Aeroporto,40.860567,14.2529902,Italie,FAUX,FAUX,VRAI
Trieste Aeroporto,45.827281,13.4704869,Italie,FAUX,FAUX,VRAI
Venezia Aeroporto Marco Polo,45.5053640124156,12.3390774644898,Italie,FAUX,FAUX,VRAI
Milano Linate Aeroporto,45.461278,9.278806,Italie,FAUX,FAUX,VRAI
Bari Aeroporto,41.1389008,16.7605991,Italie,FAUX,FAUX,VRAI
Treviso Aeroporto,45.65510900701,12.2045021751079,Italie,FAUX,FAUX,VRAI
Praha Airport (Vaclav Havel),50.1063864,14.2687786,République Tchèque,FAUX,FAUX,VRAI
Krakow Airport (John Paul II),50.071778,19.800947,Pologne,FAUX,FAUX,VRAI
Eindhoven Airport,51.4571159,5.3908055,Pays-Bas,FAUX,FAUX,VRAI
Aeroporto de Lisboa Humberto Delgado,38.7693277,-9.128510400000035,Portugal,FAUX,FAUX,VRAI
Bologna Airport,44.529283,11.294653,Italie,FAUX,FAUX,VRAI
Palermo Aeroporto (Fermata autobus),38.18727011565633,13.10700461268425,Italie,FAUX,FAUX,VRAI
Porto Airport,41.23390910000001,-8.67021590000002,Portugal,FAUX,FAUX,VRAI
Funchal Madeira Airport,32.693171,-16.775314,Portugal,FAUX,FAUX,VRAI
Warszawa Modlin,52.44587785229154,20.65070807933807,Pologne,FAUX,FAUX,VRAI
Warszawa Chopin,52.169192,20.973514,Pologne,FAUX,FAUX,VRAI
Madrid Barajas,40.4650078,-3.57069739999997,Espagne,FAUX,FAUX,VRAI
Barcelona El Prat,41.29581689776558,2.07490257918835,Espagne,FAUX,FAUX,VRAI
Dublin Airport,53.42801115,-6.240388650000005,Irlande,FAUX,FAUX,VRAI
Zagreb Airport,45.741,16.081,Croatie,FAUX,FAUX,VRAI
Budapest Airport,47.4329065837921,19.2617931962013,Hongrie,FAUX,FAUX,VRAI
Beograd Airport,44.8199,20.2907,Serbie,FAUX,FAUX,VRAI
Verona Aeroporto,45.403,10.9082,Italie,FAUX,FAUX,VRAI
Turin Cuneo Airport,44.5476,7.61837,Italie,FAUX,FAUX,VRAI
Salzburg Airport,47.7924841,12.9955638,Autriche,FAUX,FAUX,VRAI
Ljubljana Airport,46.2308784250067,14.4558995962143,Slovénie,FAUX,FAUX,VRAI
Aeroport de Nice,43.660998,7.202424,France,FAUX,FAUX,VRAI
Munchen Flughafen Terminal Area A/B,48.3574,11.7841,Allemagne,FAUX,FAUX,VRAI
Munchen Flughafen Terminal 1 Area D/E,48.351868,11.785364,Allemagne,FAUX,FAUX,VRAI
Munchen Flughafen,48.351868,11.785364,Allemagne,FAUX,FAUX,VRAI
Brindisi Aeroporto,40.6582137,17.9361081,Italie,FAUX,FAUX,VRAI
Wroclaw Airport,51.1041654,16.8809331,Pologne,FAUX,FAUX,VRAI
Weeze Airport,51.59388,6.16098999999997,Allemagne,FAUX,FAUX,VRAI
Osijek Airport,45.4662906,18.8073941,Croatie,FAUX,FAUX,VRAI
Valladolid Aeropuerto,41.7051,-4.8547,Espagne,FAUX,FAUX,VRAI
Catania Aeroporto Fontanarossa,37.475735,15.061795,Italie,FAUX,FAUX,VRAI
Perugia Aeroporto,43.09522,12.5024,Italie,FAUX,FAUX,VRAI
Malta Airport,35.8558101,14.4868944,Malte,FAUX,FAUX,VRAI
Gioia Del Colle Aeroporto,40.779981,16.935081,Italie,FAUX,FAUX,VRAI
Valencia Airport,39.491642,-0.47329,Espagne,FAUX,FAUX,VRAI
Vilnius Airport,54.638037,25.286558,Littuanie,FAUX,FAUX,VRAI
Bordeaux Airport,44.830227,-0.700843,France,FAUX,FAUX,VRAI
Cork Airport,51.8489731525078,-8.48902381340349,Irlande,FAUX,FAUX,VRAI
Carcassonne Airport,43.215751,2.306171,France,FAUX,FAUX,VRAI
Foggia Airport,41.43391,15.5358782,Italie,FAUX,FAUX,VRAI
Szczecin Airport,53.610785,14.911664,Pologne,FAUX,FAUX,VRAI
Montpellier Airport,43.5770494713834,3.9559898476324,France,FAUX,FAUX,VRAI
Menorca Airport,39.8654253,4.2264212,Espagne,FAUX,FAUX,VRAI
Bucharest Henri Coanda Airport,44.570516,26.084533,Roumanie,FAUX,FAUX,VRAI
Tirana Airport,41.4182181868454,19.7138714790344,Albanie,FAUX,FAUX,VRAI
Copenhagen Airport,55.631365,12.656061,Danemark,FAUX,FAUX,VRAI
Toulouse Airport,43.6301436137076,1.37545798711631,France,FAUX,FAUX,VRAI
Gdansk Airport,54.3808366,18.4684331999999,Pologne,FAUX,FAUX,VRAI
Biarritz Airport,43.4725243301388,-1.53179632499814,France,FAUX,FAUX,VRAI
Rijeka Airport,45.22374295,14.5651466,Croatie,FAUX,FAUX,VRAI
Paris Vatry Airport,48.780885,4.1899366,France,FAUX,FAUX,VRAI
Chambery Airport,45.638502,5.884517,France,FAUX,FAUX,VRAI
Genova Aeroporto Cristoforo Colombo,44.4153,8.85069,Italie,FAUX,FAUX,VRAI
Secovlje Portoroz Airport,45.4744043,13.6167124,Slovénie,FAUX,FAUX,VRAI
Parma Airport,44.8213,10.2979,Italie,FAUX,FAUX,VRAI
Zadar Airport,44.0964,15.3531,Croatie,FAUX,FAUX,VRAI
Maribor Airport,46.4781954,15.6820207000001,Slovénie,FAUX,FAUX,VRAI
Firenze-Peretola Aeroporto,43.8018,11.2007,Italie,FAUX,FAUX,VRAI
Klagenfurt Airport,46.6508772,14.3235913,Autriche,FAUX,FAUX,VRAI
Kaunas Airport,54.9670001,24.0713865,Littuanie,FAUX,FAUX,VRAI
Katowice Airport,50.4694999,19.074015,Pologne,FAUX,FAUX,VRAI
Bratislava Airport,48.1695907,17.1996538999999,Slovaquie,FAUX,FAUX,VRAI
Alghero Airport Fertilia,40.62877,8.294678,Italie,FAUX,FAUX,VRAI
Barcelona El Prat T2,41.3033045385296,2.0769014954567,Espagne,FAUX,FAUX,VRAI
Girona Costa Brava Airport,41.896716,2.765662,Espagne,FAUX,FAUX,VRAI
Faro Airport,37.0175956,-7.96972,Portugal,FAUX,FAUX,VRAI
Napoli Capodichino,40.8847493,14.289243,Italie,FAUX,FAUX,VRAI
Karlsruhe / Baden-Baden Airport,48.7781001,8.0875217,Allemagne,FAUX,FAUX,VRAI
Memmingen Airport,47.9875422,10.234349,Allemagne,FAUX,FAUX,VRAI
Oslo Airport (Gardermoen),60.1975501,11.1004152,Norvège,FAUX,FAUX,VRAI
Stockholm Arlanda T 2/3,59.644023,17.928869,Suède,FAUX,FAUX,VRAI
Stockholm Arlanda T 4,59.6478284,17.9286329,Suède,FAUX,FAUX,VRAI
Innsbruck Airport,47.2575301,11.3509844,Autriche,FAUX,FAUX,VRAI
Linz Airport,48.2399371,14.1879109,Autriche,FAUX,FAUX,VRAI
Sofia Airport,42.6885203,23.39719025,Bulgarie,FAUX,FAUX,VRAI
Plovdiv Airport,42.071428,24.8622985,Bulgarie,FAUX,FAUX,VRAI
Burgas Airport,42.5650814,27.4991571,Bulgarie,FAUX,FAUX,VRAI
Varna Airport,43.2375259,27.8110737,Bulgarie,FAUX,FAUX,VRAI
Rzeszow Airport,50.1118375,22.031845,Pologne,FAUX,FAUX,VRAI
Riga Airport,56.920449,23.976914,Lettonie,FAUX,FAUX,VRAI
Dubrovnik Airport,42.56008,18.261,Croatie,FAUX,FAUX,VRAI
Nantes Airport,47.154746,-1.597711,France,FAUX,FAUX,VRAI
Poznan Airport,52.413397,16.826535,Pologne,FAUX,FAUX,VRAI
Perpignan Airport,42.7409222642895,2.86699460344994,France,FAUX,FAUX,VRAI
Baia Mare Airport,47.6611057,23.4680187,Roumanie,FAUX,FAUX,VRAI
Maastricht Aachen Airport,50.9124374,5.76552179999999,Pays-Bas,FAUX,FAUX,VRAI
Castellon Airport,40.1533333,0.048223,Espagne,FAUX,FAUX,VRAI
Ostrow Wielkopolski,51.6517677,17.8026600000001,Pologne,FAUX,FAUX,VRAI
Lausanne Airport,46.541491,6.61777099999995,Suisse,FAUX,FAUX,VRAI
Cluj Airport,46.781396,23.68615,Roumanie,FAUX,FAUX,VRAI
Shannon Airport,52.6996573,-8.91469110000003,Irlande,FAUX,FAUX,VRAI
Sibiu Airport,45.7901671,24.0927893,Roumanie,FAUX,FAUX,VRAI
Lublin Airport,51.2229167,22.7035405,Pologne,FAUX,FAUX,VRAI
Reus Airport,41.1467077,1.15356139999994,Espagne,FAUX,FAUX,VRAI
Oradea Airport,47.0256291,21.8965453000001,Roumanie,FAUX,FAUX,VRAI
Nicosia Ercan Airport,35.161031,33.5031711,Chypre,FAUX,FAUX,VRAI
Thessaloniki Airport,40.5247793,22.97643440000002,Grèce,FAUX,FAUX,VRAI
Kos Airport,36.8002881,27.09680700000001,Grèce,FAUX,FAUX,VRAI
Nicosia Larnaca Airport,34.8723402,33.62035160000005,Chypre,FAUX,FAUX,VRAI
Malmo Airport,55.540613,13.364208,Suède,FAUX,FAUX,VRAI
Stockholm Bromma Airport,59.35591,17.94617,Suède,FAUX,FAUX,VRAI
Stockholm Skavsta Airport,58.78447,16.92135,Suède,FAUX,FAUX,VRAI
Stockholm Vasteras Airport,59.6017,16.62798,Suède,FAUX,FAUX,VRAI
Kiev Boryspil Airport,50.341475,30.889526,Ukraine,FAUX,FAUX,VRAI
Billund Airport,55.728449,9.112366,Danemark,FAUX,FAUX,VRAI
Munster / Osnabruck Airport,52.133725,7.685923,Allemagne,FAUX,FAUX,VRAI
Tallinn Airport,59.41620014503008,24.79882317066927,Estonie,FAUX,FAUX,VRAI
Timisoara Airport,45.810147,21.320177,Roumanie,FAUX,FAUX,VRAI
Skopje Airport,41.9616,21.6214,Macédoine du Nord,FAUX,FAUX,VRAI
Ibiza Airport,38.87707778,1.368941132,Espagne,FAUX,FAUX,VRAI
Santiago de Compostela Airport,42.89795006,-8.420665041,Espagne,FAUX,FAUX,VRAI
Pristina Airport,42.574261,21.028887,Serbie,FAUX,FAUX,VRAI
Helsinki Airport,60.317887,24.96695,Finlande,FAUX,FAUX,VRAI
Stockholm Arlanda Central,59.64957,17.9280917,Suède,FAUX,FAUX,VRAI
Stockholm Arlanda Norra,59.6515547,17.9286884,Suède,FAUX,FAUX,VRAI
Vnukovo Airport Train Station,55.605939,37.288528,Russie,FAUX,FAUX,VRAI
Moscow Domodedovo Airport Train Station,55.415005,37.897127,Russie,FAUX,FAUX,VRAI
Moscow Sheremetyevo Airport Train Station,55.963829,37.415615,Russie,FAUX,FAUX,VRAI
Basel EuroAirport Cargo,47.591986,7.544089,Suisse,FAUX,FAUX,VRAI
Basel EuroAirport Verwaltung,47.596615,7.536349,Suisse,FAUX,FAUX,VRAI
Charleroi Airport,50.47035,4.471349,Belgique,FAUX,FAUX,VRAI
Luxembourg Airport,49.635117,6.216465,Luxembourg,FAUX,FAUX,VRAI
Dala Airport,60.43,15.5075,Suède,FAUX,FAUX,VRAI
Vaxjo Smaland Airport,56.925,14.73167,Suède,FAUX,FAUX,VRAI
Kalmar Oland Airport,56.67722,16.28694,Suède,FAUX,FAUX,VRAI
Kristianstad Osterlen Airport,55.92389,14.07389,Suède,FAUX,FAUX,VRAI
Cherkasy Airport,49.402,32.014,Ukraine,FAUX,FAUX,VRAI
Moscow Vnukovo Airport,55.605939,37.288528,Russie,FAUX,FAUX,VRAI
Trapani Birgi Airport,37.913502,12.490471,Italie,FAUX,FAUX,VRAI
Catania Airport,37.47046598547813,15.06690017765132,Italie,FAUX,FAUX,VRAI
Rhodes Airport,36.40249,28.09223,Grèce,FAUX,FAUX,VRAI
Chateau-Arnoux-St-Auban,44.0615651,5.9973734,France,FAUX,VRAI,FAUX
Digne-les-Bains,44.088710133980605,6.222982406616211,France,FAUX,VRAI,FAUX
Cagnes-sur-Mer,43.65813,7.14864,France,FAUX,VRAI,FAUX
Menton,43.774444,7.4933,France,FAUX,VRAI,FAUX
Vievola,44.1125561,7.5627976,France,FAUX,VRAI,FAUX
Decazeville Centre,44.561434,2.255896,France,FAUX,VRAI,FAUX
St-Sever Calvados,48.843608,-1.0516979,France,FAUX,VRAI,FAUX
Vire,48.846329,-0.882884,France,FAUX,VRAI,FAUX
Marans,46.30433,-1.00127,France,FAUX,VRAI,FAUX
Uzerche,45.4407088,1.5702735,France,FAUX,VRAI,FAUX
Dijon Ville,47.32337,5.027208,France,FAUX,VRAI,FAUX
Pontrieux,48.7056437,-3.1574281,France,FAUX,VRAI,FAUX
Besancon Viotte,47.247019,6.022003,France,FAUX,VRAI,FAUX
Colomiers,43.603734,1.334221,France,FAUX,VRAI,FAUX
Labege Innopole,43.5473613,1.5129784,France,FAUX,VRAI,FAUX
Albas,44.466667,1.233333,France,FAUX,VRAI,FAUX
Lunel,43.679392,4.131086,France,FAUX,VRAI,FAUX
Moirans,45.322185,5.581915,France,FAUX,VRAI,FAUX
Dole Ville,47.096084,5.488105,France,FAUX,VRAI,FAUX
Reze-Pont-Rousseau,47.1932425,-1.5495445,France,FAUX,VRAI,FAUX
Angers St-Laud,47.464647,-0.55682,France,FAUX,VRAI,FAUX
Saumur,47.269,-0.07136,France,FAUX,VRAI,FAUX
Reims Ville,49.258978,4.024435,France,FAUX,VRAI,FAUX
Louverne,48.1088564,-0.7144109,France,FAUX,VRAI,FAUX
Mayenne,48.3064552166399,-0.6205880641937256,France,FAUX,VRAI,FAUX
Arnage,47.9285663,0.1898826,France,FAUX,VRAI,FAUX
Carnac,47.584558972342386,-3.0826091766357417,France,FAUX,VRAI,FAUX
St-Pierre-Quiberon,47.5210574,-3.138905,France,FAUX,VRAI,FAUX
Metz,49.109545,6.1765930000000004,France,FAUX,VRAI,FAUX
Forbach,49.1892278,6.9013184,France,FAUX,VRAI,FAUX
Sarreguemines,49.1073357,7.0686398,France,FAUX,VRAI,FAUX
Lille-Flandres,50.636577,3.06987,France,FAUX,VRAI,FAUX
Tourcoing,50.71683,3.16804,France,FAUX,VRAI,FAUX
Nomain,50.5023744,3.2063499,France,FAUX,VRAI,FAUX
Croix-Wasquehal,50.6785574,3.1380315,France,FAUX,VRAI,FAUX
Jeumont,50.29606,4.08645,France,FAUX,VRAI,FAUX
Bellegarde-sur-Valserine,46.109425,5.823483,France,FAUX,VRAI,FAUX
Calais Ville,50.952613,1.848185,France,FAUX,VRAI,FAUX
Boulogne-sur-Mer Ville,50.7157,1.60964,France,FAUX,VRAI,FAUX
Pau,43.291762,-0.369626,France,FAUX,VRAI,FAUX
Strasbourg,48.584967,7.734584,France,FAUX,VRAI,FAUX
Mertzwiller,48.872013,7.6781895,France,FAUX,VRAI,FAUX
Colmar,48.073201,7.346967,France,FAUX,VRAI,FAUX
St-Louis,47.5906094,7.5559882,France,FAUX,VRAI,FAUX
Thann,47.8088208,7.1069795,France,FAUX,VRAI,FAUX
Aspach-le-Haut,47.769396,7.142379,France,FAUX,VRAI,FAUX
Avignon Centre,43.9419,4.805281,France,FAUX,VRAI,FAUX
Eu,50.0541988,1.416837,France,FAUX,VRAI,FAUX
Harfleur,49.5136336,0.1989828,France,FAUX,VRAI,FAUX
Montivilliers,49.5429758,0.189426,France,FAUX,VRAI,FAUX
Dieppe,49.921788,1.081133,France,FAUX,VRAI,FAUX
Peronne Centre,49.934997,2.938987,France,FAUX,VRAI,FAUX
Albi Ville,43.92238,2.137958,France,FAUX,VRAI,FAUX
Orleans Centre,47.90796,1.904666,France,FAUX,VRAI,FAUX
Fontenay-le-Comte,46.46785957735252,-0.809592604637146,France,FAUX,VRAI,FAUX
St-Hilaire-de-Riez,46.7166736,-1.9496838,France,FAUX,VRAI,FAUX
Tours,47.389781,0.693703,France,FAUX,VRAI,FAUX
Limoges Benedictins,45.836089,1.267356,France,FAUX,VRAI,FAUX
Argenton-sur-Creuse,46.592248,1.518305,France,FAUX,VRAI,FAUX
Roye,49.69805004945369,2.789722681045532,France,FAUX,VRAI,FAUX
Versailles-Chantiers,48.7958264,2.1358827,France,FAUX,VRAI,FAUX
Auxon Eglise,48.092235,3.923863,France,FAUX,VRAI,FAUX
Lexy,49.5,5.733333,France,FAUX,VRAI,FAUX
Romilly-sur-Seine,48.514433,3.728887,France,FAUX,VRAI,FAUX
Nogent-sur-Seine,48.49783878,3.49372888,France,FAUX,VRAI,FAUX
Vendeuvre,48.2400686,4.4672135,France,FAUX,VRAI,FAUX
Bar-sur-Aube,48.2385399,4.7066708,France,FAUX,VRAI,FAUX
Bologne,48.1986877,5.1342228,France,FAUX,VRAI,FAUX
Vignory,48.2701366,5.1241594,France,FAUX,VRAI,FAUX
Gudmont,48.3382279,5.1408271,France,FAUX,VRAI,FAUX
Mirecourt,48.299243,6.129651,France,FAUX,VRAI,FAUX
Bagnoles-de-l'Orne Office de Tourisme,48.55437,-0.410609,France,FAUX,VRAI,FAUX
Carignan,49.6285736,5.1684754,France,FAUX,VRAI,FAUX
Margut Fromy,49.590323,5.254995,France,FAUX,VRAI,FAUX
Vitry-le-Francois,48.718142,4.587581,France,FAUX,VRAI,FAUX
St-Dizier,48.642404,4.947855,France,FAUX,VRAI,FAUX
Fronville,48.4001829,5.1564405,France,FAUX,VRAI,FAUX
Eurville,48.5828713,5.0449583,France,FAUX,VRAI,FAUX
Jussey,47.816667,5.9,France,FAUX,VRAI,FAUX
Barberey Route de Mery,48.35,4.016667,France,FAUX,VRAI,FAUX
Kuntzig,49.349918,6.2345596,France,FAUX,VRAI,FAUX
Hombourg-Budange,49.2823957,6.3507488,France,FAUX,VRAI,FAUX
Bordeaux St-Jean,44.825873,-0.556697,France,FAUX,VRAI,FAUX
Apach,49.4439732,6.3500923,France,FAUX,VRAI,FAUX
Morhange,48.9366239,6.6590266,France,FAUX,VRAI,FAUX
Bouzonville,49.2899739,6.5293736000000004,France,FAUX,VRAI,FAUX
Farebersviller,49.1181603,6.8618926,France,FAUX,VRAI,FAUX
Farschviller,49.0878773,6.9080815,France,FAUX,VRAI,FAUX
Rohrbach-les-Bitche,49.05535,7.26433,France,FAUX,VRAI,FAUX
Enchenberg,49.01614,7.33372,France,FAUX,VRAI,FAUX
Bitche,49.04838,7.4321,France,FAUX,VRAI,FAUX
Montmedy,49.5228775,5.3716718,France,FAUX,VRAI,FAUX
Cons-la-Grandville,49.483333,5.7,France,FAUX,VRAI,FAUX
Reichshoffen Ville,48.9310582,7.658132,France,FAUX,VRAI,FAUX
Philippsbourg,48.983333,7.566667,France,FAUX,VRAI,FAUX
Wissembourg,49.0318895,7.9501435,France,FAUX,VRAI,FAUX
Obernai,48.46219,7.48881,France,FAUX,VRAI,FAUX
Mittersheim,48.866667,6.933333,France,FAUX,VRAI,FAUX
Fenetrange,48.85,7.016667,France,FAUX,VRAI,FAUX
Aeroport Paris Roissy Charles de Gaulle CDG T2,49.003652,2.570892,France,FAUX,VRAI,VRAI
Chateau-du-Loir,47.683392,0.414912,France,FAUX,VRAI,FAUX
Cannes,43.553839,7.019682,France,FAUX,VRAI,FAUX
Clermont-Ferrand,45.778945,3.100543,France,FAUX,VRAI,FAUX
Chambourg,47.1821629,0.9648363,France,FAUX,VRAI,FAUX
Dourdan,48.533466,2.009643,France,FAUX,VRAI,FAUX
Massy TGV,48.725758,2.261254,France,FAUX,VRAI,FAUX
Domfront,48.1076766,0.0262592,France,FAUX,VRAI,FAUX
Mondoubleau,47.98396,0.898777,France,FAUX,VRAI,FAUX
St-Valery-en-Caux,49.86182143224062,0.7132315635681152,France,FAUX,VRAI,FAUX
Blonville-sur-Mer-Benerville,49.3313919,0.0356856,France,FAUX,VRAI,FAUX
Villers-sur-Mer,49.3159865,0.0099283,France,FAUX,VRAI,FAUX
Houlgate,49.3000711,-0.0772276,France,FAUX,VRAI,FAUX
Ecouche,48.7151009,-0.1209574,France,FAUX,VRAI,FAUX
Le Merlerault,48.7024888,0.2832169,France,FAUX,VRAI,FAUX
Villedieu-les-Poeles,48.8340495,-1.225559,France,FAUX,VRAI,FAUX
La Ferte-Mace,48.589993,-0.358,France,FAUX,VRAI,FAUX
Montauban-de-Bretagne,48.190241,-2.052675,France,FAUX,VRAI,FAUX
Loudeac Centre,48.180337892604314,-2.7627182006835938,France,FAUX,VRAI,FAUX
Carhaix,48.2780022,-3.5622173,France,FAUX,VRAI,FAUX
Roscoff,48.7207491,-3.9833434,France,FAUX,VRAI,FAUX
St-Etienne Chateaucreux,45.443366,4.399722,France,FAUX,VRAI,FAUX
Pontivy,48.06192304752991,-2.965782880783081,France,FAUX,VRAI,FAUX
Bourgneuf-en-Retz Ecole,47.04216,-1.94913,France,FAUX,VRAI,FAUX
Bourgneuf-en-Retz,47.0469634,-1.9551942,France,FAUX,VRAI,FAUX
Chateau-Gontier,47.85,-0.95,France,FAUX,VRAI,FAUX
Segre,47.686272,-0.876409,France,FAUX,VRAI,FAUX
Benet-Riche-Bonne,46.373362,-0.592757,France,FAUX,VRAI,FAUX
Torfou,47.0331153,-1.1173797,France,FAUX,VRAI,FAUX
Cerizay,46.8176878,-0.6689931,France,FAUX,VRAI,FAUX
Pouzauges,46.7523536,-0.8146784,France,FAUX,VRAI,FAUX
Montreuil-Bellay,47.1254181,-0.1482834,France,FAUX,VRAI,FAUX
Angerville,48.3112062,2.0034931,France,FAUX,VRAI,FAUX
Monnerville,48.3484915,2.0320595,France,FAUX,VRAI,FAUX
Guillerval,48.3744455,2.0598748,France,FAUX,VRAI,FAUX
Neuille-Pont-Pierre,47.5580135,0.5649155,France,FAUX,VRAI,FAUX
Azay-le-Rideau,47.2663383,0.4475388,France,FAUX,VRAI,FAUX
Chateau-Renault,47.5877961,0.9015238,France,FAUX,VRAI,FAUX
Monnaie,47.4987491,0.7932851,France,FAUX,VRAI,FAUX
Privas,44.73465444794721,4.5998382568359375,France,FAUX,VRAI,FAUX
Ludon,44.9744015,-0.6118009,France,FAUX,VRAI,FAUX
Margaux,45.0358307,-0.6854145,France,FAUX,VRAI,FAUX
Moulis-Listrac,45.0840273,-0.7447365,France,FAUX,VRAI,FAUX
Soulac-sur-Mer,45.5081769,-1.1175894,France,FAUX,VRAI,FAUX
Le Verdon,45.5492065,-1.0650925,France,FAUX,VRAI,FAUX
Parempuyre,44.9447032,-0.6193396,France,FAUX,VRAI,FAUX
St-Leonard-de-Noblat,45.8320199,1.481686,France,FAUX,VRAI,FAUX
Pierre-Buffiere,45.6995226,1.3472667,France,FAUX,VRAI,FAUX
Assier,44.6746197,1.8697681,France,FAUX,VRAI,FAUX
Figeac,44.603515,2.037355,France,FAUX,VRAI,FAUX
Egletons,45.4023816,2.0651243,France,FAUX,VRAI,FAUX
Naves Bourg,45.31266889256478,1.768798828125,France,FAUX,VRAI,FAUX
Masseret,45.536175,1.5415396,France,FAUX,VRAI,FAUX
Issoudun,46.948763,1.985834,France,FAUX,VRAI,FAUX
Buzancais,46.885150209934594,1.4185291528701782,France,FAUX,VRAI,FAUX
Nimes Centre,43.832291,4.365845,France,FAUX,VRAI,FAUX
Aubusson,45.9596691,2.1617231,France,FAUX,VRAI,FAUX
Douelle,44.466667,1.366667,France,FAUX,VRAI,FAUX
Luzech,44.483333,1.283333,France,FAUX,VRAI,FAUX
Limoux,43.0563831,2.2228288,France,FAUX,VRAI,FAUX
Lavaur,43.703479,1.813146,France,FAUX,VRAI,FAUX
Le Mont-Dore,45.5793192,2.8047389,France,FAUX,VRAI,FAUX
Capvern,43.1033454,0.3296393,France,FAUX,VRAI,FAUX
Gex Centre,46.33204691423479,6.058391332626343,France,FAUX,VRAI,FAUX
Montierchaume Bourg,46.866667,1.766667,France,FAUX,VRAI,FAUX
Givors Ville,45.584948,4.766086,France,FAUX,VRAI,FAUX
Zornhoff,48.760358,7.398122,France,FAUX,VRAI,FAUX
Neuvy-Sautour,48.03439221867337,3.799096941947937,France,FAUX,VRAI,FAUX
Grenoble,45.191493,5.714584,France,FAUX,VRAI,FAUX
Dardilly le Jubin,45.815143,4.7613451,France,FAUX,VRAI,FAUX
Charbonnieres-les-Bains,45.782142,4.735912,France,FAUX,VRAI,FAUX
Macon Ville,46.302572,4.824887,France,FAUX,VRAI,FAUX
Hirson,49.91455,4.08432,France,FAUX,VRAI,FAUX
Chartres,48.4482023,1.4813128,France,FAUX,VRAI,FAUX
Annonay Gare Routiere,45.24368147571794,4.668642282485962,France,FAUX,VRAI,FAUX
La Voulte,44.799362720814585,4.781134128570557,France,FAUX,VRAI,FAUX
Aire-sur-l'Adour Office de Tourisme,43.687952,-0.254421,France,FAUX,VRAI,FAUX
Laroche-Migennes,47.960998,3.513191,France,FAUX,VRAI,FAUX
St-Florentin-Vergigny,47.981058,3.731036,France,FAUX,VRAI,FAUX
La Bernerie-en-Retz Centre,47.080438930425245,-2.0375454425811768,France,FAUX,VRAI,FAUX
Les Moutiers-en-Retz Centre,47.06189301121265,-2.000960111618042,France,FAUX,VRAI,FAUX
Ferney Centre,46.258577,6.11063,France,FAUX,VRAI,FAUX
Le Chatelard Frontiere,46.053679,6.950603,France,FAUX,VRAI,FAUX
La Baule-Escoublac,47.28869,-2.389102,France,FAUX,VRAI,FAUX
Joue-les-Tours,47.3541741,0.6675586,France,FAUX,VRAI,FAUX
Langres,47.8769474,5.3444064,France,FAUX,VRAI,FAUX
Longuyon,49.4442555,5.604482,France,FAUX,VRAI,FAUX
Luneville,48.588233,6.49727,France,FAUX,VRAI,FAUX
Montlucon,46.338101,2.596159,France,FAUX,VRAI,FAUX
Lyon Part-Dieu,45.760559,4.859355,France,FAUX,VRAI,FAUX
Le Puy-en-Velay,45.042866,3.892421,France,FAUX,VRAI,FAUX
La Rochelle Ville,46.15269,-1.145305,France,FAUX,VRAI,FAUX
Lusigny-sur-Barse Centre,48.254562,4.254864,France,FAUX,VRAI,FAUX
Longwy,49.5129923,5.7696358,France,FAUX,VRAI,FAUX
Meymac,45.5302313,2.1640905,France,FAUX,VRAI,FAUX
Font-Romeu-Odeillo-Via,42.4912317,2.0383917,France,FAUX,VRAI,FAUX
Marne-la-Vallee-Chessy,48.869856,2.78272,France,FAUX,VRAI,FAUX
Mont-sur-Meurthe,48.5599456,6.4496444,France,FAUX,VRAI,FAUX
Chaumont,48.10976,5.1346,France,FAUX,VRAI,FAUX
Montpellier St-Roch,43.604738,3.880674,France,FAUX,VRAI,FAUX
Marseille St-Charles,43.302666,5.380407,France,FAUX,VRAI,FAUX
Montdidier,49.64147,2.563,France,FAUX,VRAI,FAUX
Munster,48.0383438,7.1341728,France,FAUX,VRAI,FAUX
Nice Ville,43.704556,7.261904,France,FAUX,VRAI,FAUX
Nantes,47.216148,-1.542356,France,FAUX,VRAI,FAUX
Aubenas,44.61098202551544,4.4072020053863525,France,FAUX,VRAI,FAUX
Brignoles,43.40595166064919,6.05647087097168,France,FAUX,VRAI,FAUX
Paris Gare du Nord,48.880185,2.355151,France,FAUX,VRAI,FAUX
Pont-sur-Seine Fleming,48.50964,3.60186,France,FAUX,VRAI,FAUX
Rouilly-St-Loup la Guerade,48.266667,4.15,France,FAUX,VRAI,FAUX
Perros-Guirec,48.816667,-3.45,France,FAUX,VRAI,FAUX
Aime-la-Plagne,45.5544,6.648646,France,FAUX,VRAI,FAUX
Moutiers-Salins,45.486344,6.531425,France,FAUX,VRAI,FAUX
Aix-en-Provence Centre,43.522912,5.445345,France,FAUX,VRAI,FAUX
Troyes,48.296069,4.065281,France,FAUX,VRAI,FAUX
St-Andre-les-Vergers Reine Blanche,48.279174,4.046593,France,FAUX,VRAI,FAUX
Crancey RN,48.516667,3.633333,France,FAUX,VRAI,FAUX
Riom-Chatel-Guyon,45.889965,3.120498,France,FAUX,VRAI,FAUX
Villiers-le-Sec Mairie,48.107507,5.063443,France,FAUX,VRAI,FAUX
St-Amand-Longpre,47.69413,1.008203,France,FAUX,VRAI,FAUX
St-Georges-d'Aurac,45.1605341,3.4947035,France,FAUX,VRAI,FAUX
Ste-Pazanne,47.1055419,-1.8138744,France,FAUX,VRAI,FAUX
Schweighouse-sur-Moder,48.8286765,7.7425635,France,FAUX,VRAI,FAUX
Latour-de-Carol - Enveitg,42.4590464,1.9045027,France,FAUX,VRAI,FAUX
Thiers,45.8610502,3.5431798,France,FAUX,VRAI,FAUX
Thoiry Mairie,46.230758,5.980352,France,FAUX,VRAI,FAUX
Toulouse Matabiau,43.611206,1.453616,France,FAUX,VRAI,FAUX
Trouville-Deauville,49.360005,0.084167,France,FAUX,VRAI,FAUX
Geneve,46.208942,6.145262,Suisse,FAUX,VRAI,FAUX
Urt,43.4993785,-1.3005564,France,FAUX,VRAI,FAUX
Rouen Rive Droite,49.448764,1.094087,France,FAUX,VRAI,FAUX
Valence Ville,44.928049,4.893273,France,FAUX,VRAI,FAUX
Vierzon,47.226497,2.059822,France,FAUX,VRAI,FAUX
Vitry-la-Ville Mairie,48.837638,4.45757,France,FAUX,VRAI,FAUX
Ervy-le-Chatel,48.033333,3.916667,France,FAUX,VRAI,FAUX
Creutzwald Gare Routiere,49.207553,6.696936,France,FAUX,VRAI,FAUX
Dives-Cabourg,49.2864776,-0.1074996,France,FAUX,VRAI,FAUX
Bourg-en-Bresse,46.200351,5.215063,France,FAUX,VRAI,FAUX
Evian-les-Bains,46.397915,6.577457,France,FAUX,VRAI,FAUX
Montauban Ville Bourbon,44.014387,1.341496,France,FAUX,VRAI,FAUX
Mazamet,43.4977847,2.3747346,France,FAUX,VRAI,FAUX
Tulle,45.258725,1.756467,France,FAUX,VRAI,FAUX
Cahors,44.449275,1.433325,France,FAUX,VRAI,FAUX
Basel SBB,47.5470755094,7.589169996,Suisse,FAUX,VRAI,FAUX
London St-Pancras,51.531921,-0.126361,Royaume-Uni,FAUX,VRAI,FAUX
Bruxelles-Midi,50.835374,4.335695,Belgique,FAUX,VRAI,FAUX
Amsterdam-Centraal,52.37919,4.899426,Pays-Bas,FAUX,VRAI,FAUX
Antwerpen-Centraal,51.21552672202654,4.42100465297699,Belgique,FAUX,VRAI,FAUX
Gent-Sint-Pieters,51.035627,3.710612,Belgique,FAUX,VRAI,FAUX
Liege-Guillemins,50.624297,5.566667,Belgique,FAUX,VRAI,FAUX
Martigny,46.105834,7.079122,Suisse,FAUX,VRAI,FAUX
Zurich HB,47.378186,8.539203,Suisse,FAUX,VRAI,FAUX
Lausanne,46.516704,6.62905,Suisse,FAUX,VRAI,FAUX
Grenchen Nord,47.191821,7.389456,Suisse,FAUX,VRAI,FAUX
Bern Hbf,46.949113,7.438483,Suisse,FAUX,VRAI,FAUX
Antequera Ciudad,37.028276,-4.561063,Espagne,FAUX,VRAI,FAUX
Valladolid Campo Grande,41.641971,-4.727004,Espagne,FAUX,VRAI,FAUX
Ourense-Empalme,42.350627,-7.872743,Espagne,FAUX,VRAI,FAUX
Segovia Estacion,40.934062,-4.11332,Espagne,FAUX,VRAI,FAUX
Puente Genil Estacion,37.395966,-4.75308,Espagne,FAUX,VRAI,FAUX
Malaga-Maria Zambrano,36.711819,-4.43214,Espagne,FAUX,VRAI,FAUX
Santander Estacion,43.458287,-3.811435,Espagne,FAUX,VRAI,FAUX
Betanzos-Cidade,43.284264,-8.215673,Espagne,FAUX,VRAI,FAUX
Alacant-Terminal,38.344444,-0.494972,Espagne,FAUX,VRAI,FAUX
Bilbao Abando,43.259715,-2.927507,Espagne,FAUX,VRAI,FAUX
Barcelona Sants,41.378911,2.140367,Espagne,FAUX,VRAI,FAUX
A Coruna-San Cristovo,43.352681,-8.409651,Espagne,FAUX,VRAI,FAUX
Madrid Atocha,40.405963,-3.689757,Espagne,FAUX,VRAI,FAUX
Medina del Campo Estacion,41.317676,-4.910474,Espagne,FAUX,VRAI,FAUX
Tarragona Estacio,41.111212,1.253527,Espagne,FAUX,VRAI,FAUX
Redondela de Galicia,42.286165,-8.61945,Espagne,FAUX,VRAI,FAUX
San Fernando de Cadiz,36.4758,-6.19444,Espagne,FAUX,VRAI,FAUX
Valencia Estacio Nord,39.466932,-0.377151,Espagne,FAUX,VRAI,FAUX
Aachen Hbf,50.767802,6.091495,Allemagne,FAUX,VRAI,FAUX
Aschaffenburg Hbf,49.980554,9.143692,Allemagne,FAUX,VRAI,FAUX
Berchtesgaden Hbf,47.626683,12.999058,Allemagne,FAUX,VRAI,FAUX
Augsburg Hbf,48.365444,10.885568,Allemagne,FAUX,VRAI,FAUX
Freudenstadt Hbf,48.460325,8.428807,Allemagne,FAUX,VRAI,FAUX
Hannover Hbf,52.376763,9.741016,Allemagne,FAUX,VRAI,FAUX
Hildesheim Hbf,52.160627,9.953494,Allemagne,FAUX,VRAI,FAUX
Ingolstadt Hbf,48.744537,11.437335,Allemagne,FAUX,VRAI,FAUX
Landshut (Bay) Hbf,48.547494,12.135931,Allemagne,FAUX,VRAI,FAUX
Lorrach Hbf,47.614054,7.665416,Allemagne,FAUX,VRAI,FAUX
Metzingen (Wurtt),48.539727,9.290153,Allemagne,FAUX,VRAI,FAUX
Monchengladbach Hbf,51.196579,6.44611,Allemagne,FAUX,VRAI,FAUX
Neunkirchen (Saar) Hbf,49.353287,7.176655,Allemagne,FAUX,VRAI,FAUX
Neuss Hbf,51.204444,6.684396,Allemagne,FAUX,VRAI,FAUX
Oberhausen Hbf,51.475118,6.852036,Allemagne,FAUX,VRAI,FAUX
Osnabruck Hbf,52.272848,8.061777,Allemagne,FAUX,VRAI,FAUX
Paderborn Hbf,51.712982,8.740508,Allemagne,FAUX,VRAI,FAUX
Pforzheim Hbf,48.894154,8.703095,Allemagne,FAUX,VRAI,FAUX
Reutlingen Hbf,48.49603,9.209196,Allemagne,FAUX,VRAI,FAUX
Remscheid Hbf,51.17727,7.199622,Allemagne,FAUX,VRAI,FAUX
Regensburg Hbf,49.011669,12.099615,Allemagne,FAUX,VRAI,FAUX
Schweinfurt Hbf,50.035316,10.212923,Allemagne,FAUX,VRAI,FAUX
Solingen Hbf,51.160909,7.004241,Allemagne,FAUX,VRAI,FAUX
Sinsheim (Elsenz) Hbf,49.250351,8.875103,Allemagne,FAUX,VRAI,FAUX
Tubingen Hbf,48.515807,9.055409,Allemagne,FAUX,VRAI,FAUX
Wilhelmshaven Hbf,53.518717,8.115641,Allemagne,FAUX,VRAI,FAUX
Worms Hbf,49.634748,8.356633,Allemagne,FAUX,VRAI,FAUX
Bochum Hbf,51.478651,7.224109,Allemagne,FAUX,VRAI,FAUX
Bonn Hbf,50.732007,7.097136,Allemagne,FAUX,VRAI,FAUX
Hamburg Hbf,53.552732,10.006908,Allemagne,FAUX,VRAI,FAUX
Dusseldorf Hbf,51.21996,6.794316,Allemagne,FAUX,VRAI,FAUX
Mannheim Hbf,49.479295999056305,8.469530940055847,Allemagne,FAUX,VRAI,FAUX
Munchen Hbf,48.140228,11.558337999999999,Allemagne,FAUX,VRAI,FAUX
Neustadt (Weinstr) Hbf,49.34961,8.140379,Allemagne,FAUX,VRAI,FAUX
Wuppertal Hbf,51.254334,7.149381,Allemagne,FAUX,VRAI,FAUX
Balingen (Wurtt),48.278464,8.850302,Allemagne,FAUX,VRAI,FAUX
Zwickau (Sachs) Hbf,50.714955,12.475984,Allemagne,FAUX,VRAI,FAUX
Dresden Hbf,51.040562,13.732038,Allemagne,FAUX,VRAI,FAUX
Bielefeld Hbf,52.029258,8.532722,Allemagne,FAUX,VRAI,FAUX
Bremerhaven Hbf,53.534916,8.599557,Allemagne,FAUX,VRAI,FAUX
Bremen Hbf,53.083477,8.813833,Allemagne,FAUX,VRAI,FAUX
Bayreuth Hbf,49.949613,11.579985,Allemagne,FAUX,VRAI,FAUX
Koln Hbf,50.943029,6.958729,Allemagne,FAUX,VRAI,FAUX
Darmstadt Hbf,49.872503,8.629635,Allemagne,FAUX,VRAI,FAUX
Dortmund Hbf,51.517898,7.459293,Allemagne,FAUX,VRAI,FAUX
Duisburg Hbf,51.429786,6.775906,Allemagne,FAUX,VRAI,FAUX
Emden Hbf,53.369011,7.19501,Allemagne,FAUX,VRAI,FAUX
Erfurt Hbf,50.972549,11.038501,Allemagne,FAUX,VRAI,FAUX
Essen Hbf,51.451351,7.014795,Allemagne,FAUX,VRAI,FAUX
Furth (Bay) Hbf,49.469706,10.989987,Allemagne,FAUX,VRAI,FAUX
Friedrichshafen Stadt,47.65322,9.473902,Allemagne,FAUX,VRAI,FAUX
Freiburg (Breisgau) Hbf,47.997690269936264,7.841593623161316,Allemagne,FAUX,VRAI,FAUX
Frankfurt (Main) Hbf,50.107149,8.663785,Allemagne,FAUX,VRAI,FAUX
Gelsenkirchen Hbf,51.505016,7.102583,Allemagne,FAUX,VRAI,FAUX
Hanau Hbf,50.12128,8.929165,Allemagne,FAUX,VRAI,FAUX
Berlin Hbf,52.525589,13.369548,Allemagne,FAUX,VRAI,FAUX
Heilbronn Hbf,49.143308,9.207713,Allemagne,FAUX,VRAI,FAUX
Heidelberg Hbf,49.403779,8.675741,Allemagne,FAUX,VRAI,FAUX
Hof Hbf,50.307743,11.923067,Allemagne,FAUX,VRAI,FAUX
Kempten (Allgau) Hbf,47.711748,10.317611,Allemagne,FAUX,VRAI,FAUX
Krefeld Hbf,51.325772,6.570224,Allemagne,FAUX,VRAI,FAUX
Kiel Hbf,54.314982,10.131975,Allemagne,FAUX,VRAI,FAUX
Karlsruhe Hbf,48.99350964955472,8.401848077774048,Allemagne,FAUX,VRAI,FAUX
Kassel Hbf,51.318257,9.489498,Allemagne,FAUX,VRAI,FAUX
Lubeck Hbf,53.867768,10.670348,Allemagne,FAUX,VRAI,FAUX
Leipzig Hbf,51.346546,12.383333,Allemagne,FAUX,VRAI,FAUX
Lindau Hbf,47.544738,9.680303,Allemagne,FAUX,VRAI,FAUX
Munchen Flughafen Terminal,48.353731,11.785972,Allemagne,FAUX,VRAI,VRAI
Munster (Westf) Hbf,51.956563,7.635716,Allemagne,FAUX,VRAI,FAUX
Nurnberg Hbf,49.445615,11.082989,Allemagne,FAUX,VRAI,FAUX
Ulm Hbf,48.399432,9.982224,Allemagne,FAUX,VRAI,FAUX
Wurzburg Hbf,49.801794,9.935777,Allemagne,FAUX,VRAI,FAUX
Saarbrucken Hbf,49.24115221039208,6.990984678268433,Allemagne,FAUX,VRAI,FAUX
Stuttgart Hbf,48.784081,9.181636,Allemagne,FAUX,VRAI,FAUX
Wiesbaden Hbf,50.070788,8.243728,Allemagne,FAUX,VRAI,FAUX
Potsdam Hbf,52.391703,13.066782,Allemagne,FAUX,VRAI,FAUX
Hagen Hbf,51.362744,7.460246,Allemagne,FAUX,VRAI,FAUX
Gera Hbf,50.883421,12.077088,Allemagne,FAUX,VRAI,FAUX
Halle (Saale) Hbf,51.477509,11.987088,Allemagne,FAUX,VRAI,FAUX
Magdeburg Hbf,52.130351,11.62689,Allemagne,FAUX,VRAI,FAUX
Koblenz Hbf,50.35108,7.588648,Allemagne,FAUX,VRAI,FAUX
Ludwigshafen (Rh) Hbf,49.477985,8.4334,Allemagne,FAUX,VRAI,FAUX
Mulheim (Ruhr) Hbf,51.431323,6.88668,Allemagne,FAUX,VRAI,FAUX
Rostock Hbf,54.078323,12.131706,Allemagne,FAUX,VRAI,FAUX
Schwerin Hbf,53.63466,11.407553,Allemagne,FAUX,VRAI,FAUX
Dessau Hbf,51.839865,12.234948,Allemagne,FAUX,VRAI,FAUX
Stralsund Hbf,54.308626,13.077318,Allemagne,FAUX,VRAI,FAUX
Chemnitz Hbf,50.839266,12.930299,Allemagne,FAUX,VRAI,FAUX
Southampton Central,50.907742,-1.413983,Royaume-Uni,FAUX,VRAI,FAUX
Liverpool Central,53.40525,-2.977841,Royaume-Uni,FAUX,VRAI,FAUX
Wakefield Westgate,53.681736,-1.506386,Royaume-Uni,FAUX,VRAI,FAUX
Falkirk High,55.991863,-3.792276,Royaume-Uni,FAUX,VRAI,FAUX
Portsmouth Harbour,50.796097,-1.108895,Royaume-Uni,FAUX,VRAI,FAUX
Newbury Station,51.397599,-1.322608,Royaume-Uni,FAUX,VRAI,FAUX
Bedford Station,52.136175,-0.47945,Royaume-Uni,FAUX,VRAI,FAUX
Great Malvern,52.109165,-2.318289,Royaume-Uni,FAUX,VRAI,FAUX
Yeovil Junction,50.924686,-2.613198,Royaume-Uni,FAUX,VRAI,FAUX
Newhaven Town,50.794888,0.054627,Royaume-Uni,FAUX,VRAI,FAUX
Dorchester South,50.708752,-2.437593,Royaume-Uni,FAUX,VRAI,FAUX
East Croydon,51.375679,-0.093335,Royaume-Uni,FAUX,VRAI,FAUX
Ealing Broadway,51.51466,-0.300843,Royaume-Uni,FAUX,VRAI,FAUX
Warrington Central,53.391857,-2.592434,Royaume-Uni,FAUX,VRAI,FAUX
New Mills Central,53.364567,-2.007485,Royaume-Uni,FAUX,VRAI,FAUX
Worcester Foregate Street,52.194801,-2.220885,Royaume-Uni,FAUX,VRAI,FAUX
Colchester Station,51.900478,0.894085,Royaume-Uni,FAUX,VRAI,FAUX
Dumbarton Central,55.946705,-4.56697,Royaume-Uni,FAUX,VRAI,FAUX
Prestwick Town,55.501675,-4.613935,Royaume-Uni,FAUX,VRAI,FAUX
Paisley Gilmour Street,55.848026,-4.424646,Royaume-Uni,FAUX,VRAI,FAUX
Tyndrum Lower,56.433407,-4.714873,Royaume-Uni,FAUX,VRAI,FAUX
Canterbury West,51.284279,1.074608,Royaume-Uni,FAUX,VRAI,FAUX
Burnley Central,53.793776,-2.244644,Royaume-Uni,FAUX,VRAI,FAUX
Folkestone Central,51.082985,1.168331,Royaume-Uni,FAUX,VRAI,FAUX
Ashford International,51.14335293766652,0.8751672506332396,Royaume-Uni,FAUX,VRAI,FAUX
Tilbury Town,51.462879,0.353724,Royaume-Uni,FAUX,VRAI,FAUX
Maidstone East,51.277729,0.520618,Royaume-Uni,FAUX,VRAI,FAUX
Birmingham New Street,52.478153,-1.898375,Royaume-Uni,FAUX,VRAI,FAUX
Bradford Interchange,53.791196,-1.749701,Royaume-Uni,FAUX,VRAI,FAUX
Blackpool North,53.822772,-3.049908,Royaume-Uni,FAUX,VRAI,FAUX
Exeter Central,50.726471,-3.532973,Royaume-Uni,FAUX,VRAI,FAUX
Glasgow Central,55.860157,-4.259208,Royaume-Uni,FAUX,VRAI,FAUX
Guildford Station,51.236912,-0.580409,Royaume-Uni,FAUX,VRAI,FAUX
Grimsby Town,53.564091,-0.086922,Royaume-Uni,FAUX,VRAI,FAUX
Heathrow Terminals 1-2-3 Rail,51.471,-0.456,Royaume-Uni,FAUX,VRAI,VRAI
Manchester Piccadilly,53.476704,-2.228991,Royaume-Uni,FAUX,VRAI,FAUX
Enfield Town,51.651524,-0.078891,Royaume-Uni,FAUX,VRAI,FAUX
Epsom Station,51.334339,-0.268756,Royaume-Uni,FAUX,VRAI,FAUX
Welwyn Garden City,51.800957,-0.203081,Royaume-Uni,FAUX,VRAI,FAUX
Wembley Central,51.551468,-0.296592,Royaume-Uni,FAUX,VRAI,FAUX
Wimbledon Station,51.421528,-0.206496,Royaume-Uni,FAUX,VRAI,FAUX
Woolwich Arsenal,51.489815,0.069883,Royaume-Uni,FAUX,VRAI,FAUX
Farnborough Main,51.296471,-0.756436,Royaume-Uni,FAUX,VRAI,FAUX
Lymington Town,50.760818,-1.537753,Royaume-Uni,FAUX,VRAI,FAUX
Sudbury Hill Harrow,51.558423,-0.336092,Royaume-Uni,FAUX,VRAI,FAUX
Newark Northgate,53.082542,-0.799644,Royaume-Uni,FAUX,VRAI,FAUX
Reading Station,51.458767,-0.972172,Royaume-Uni,FAUX,VRAI,FAUX
Firenze Santa Maria Novella,43.77681,11.247806,Italie,FAUX,VRAI,FAUX
Genova Piazza Principe,44.417507,8.922072,Italie,FAUX,VRAI,FAUX
Milano Centrale,45.487143,9.204828,Italie,FAUX,VRAI,FAUX
Napoli Centrale,40.852826,14.273072,Italie,FAUX,VRAI,FAUX
Reggio di Calabria Centrale,38.104123,15.635792,Italie,FAUX,VRAI,FAUX
Roma Termini,41.900833,12.501944,Italie,FAUX,VRAI,FAUX
Rimini,44.06424,12.574012,Italie,FAUX,VRAI,FAUX
Torino Porta Nuova,45.061,7.677713,Italie,FAUX,VRAI,FAUX
Venezia Santa Lucia,45.441397,12.320462,Italie,FAUX,VRAI,FAUX
Verona Porta Nuova,45.428659,10.982741,Italie,FAUX,VRAI,FAUX
Luxembourg,49.599717,6.134391,Luxembourg,FAUX,VRAI,FAUX
Rodange,49.551283,5.845028,Luxembourg,FAUX,VRAI,FAUX
Den Haag Centraal,52.080506,4.323991,Pays-Bas,FAUX,VRAI,FAUX
Rotterdam Centraal,51.925068244603146,4.468839168548584,Pays-Bas,FAUX,VRAI,FAUX
Utrecht Centraal,52.08758,5.111167,Pays-Bas,FAUX,VRAI,FAUX
Lisboa Santa Apolonia,38.71387,-9.122271,Portugal,FAUX,VRAI,FAUX
Porto Campanha,41.148823,-8.584932,Portugal,FAUX,VRAI,FAUX
Naucelle Centre,44.194584,2.341033,France,FAUX,VRAI,FAUX
St-Denis-Voyageurs,NA,NA,France,FAUX,VRAI,FAUX
Ermont-Halte,48.9898,2.26323,France,FAUX,VRAI,FAUX
Cergy-le-Haut,49.0484932,2.0118725,France,FAUX,VRAI,FAUX
Aeroport Paris Orly Ouest,48.75,2.4,France,FAUX,VRAI,VRAI
Evry-Val-de-Seine,48.63442,2.45209,France,FAUX,VRAI,FAUX
Bologna Centrale,44.506141,11.343406,Italie,FAUX,VRAI,FAUX
Warszawa-Centralna,52.228864,21.003233,Pologne,FAUX,VRAI,FAUX
Budapest-Keleti,47.500385,19.085069,Hongrie,FAUX,VRAI,FAUX
Moskva Kievskaia,55.742963,37.566774,Russie,FAUX,VRAI,FAUX
Villach Hbf,46.618624,13.848538,Autriche,FAUX,VRAI,FAUX
Uzel Aire de covoiturage (Berlouze),48.271138,-2.78608,France,FAUX,VRAI,FAUX
Limburg Sud,50.382498,8.096107,Allemagne,FAUX,VRAI,FAUX
Bottrop Hbf,51.509538,6.936921,Allemagne,FAUX,VRAI,FAUX
Braunschweig Hbf,52.252236,10.539699,Allemagne,FAUX,VRAI,FAUX
Soltau (Han),52.983131,9.831214,Allemagne,FAUX,VRAI,FAUX
Trier Hbf,49.756848,6.652449,Allemagne,FAUX,VRAI,FAUX
Herzberg (Harz),51.643864,10.329927,Allemagne,FAUX,VRAI,FAUX
Landau (Pfalz) Hbf,49.198178,8.126167,Allemagne,FAUX,VRAI,FAUX
Mainz Hbf,50.001112,8.258722,Allemagne,FAUX,VRAI,FAUX
Villingen-Schwenningen Eisstadion,48.052772,8.528551,Allemagne,FAUX,VRAI,FAUX
Bad St. Peter Sud,54.305129,8.650499,Allemagne,FAUX,VRAI,FAUX
Laupheim Stadt,48.233303,9.878389,Allemagne,FAUX,VRAI,FAUX
Osterode am Harz Mitte,51.726268,10.245365,Allemagne,FAUX,VRAI,FAUX
Salzgitter-Watenstedt,52.150163,10.407396,Allemagne,FAUX,VRAI,FAUX
Selb Stadt,50.174217,12.126304,Allemagne,FAUX,VRAI,FAUX
Kaltenkirchen (Holst),53.834454,9.967203,Allemagne,FAUX,VRAI,FAUX
Rudolstadt (Thur),50.717993,11.339155,Allemagne,FAUX,VRAI,FAUX
Ostseebad Binz,54.40482,13.600508,Allemagne,FAUX,VRAI,FAUX
Jena Paradies,50.924853,11.587464,Allemagne,FAUX,VRAI,FAUX
Ostseebad Kuhlungsborn Mitte,54.141481,11.753386,Allemagne,FAUX,VRAI,FAUX
Seebad Ahlbeck,53.935475,14.187854,Allemagne,FAUX,VRAI,FAUX
Seebad Heringsdorf,53.94984,14.169588,Allemagne,FAUX,VRAI,FAUX
Sellin (Rugen) Ost,54.371344,13.697663,Allemagne,FAUX,VRAI,FAUX
Salzburg Hbf,47.813046443088425,13.045819401741028,Autriche,FAUX,VRAI,FAUX
Bolzano/Bozen,46.49638,11.358787,Italie,FAUX,VRAI,FAUX
Bratislava hl.st.,48.158908,17.106463,Slovaquie,FAUX,VRAI,FAUX
Graz Hbf,47.067842,15.415664,Autriche,FAUX,VRAI,FAUX
Brno hl.n.,49.190537,16.612775,République Tchèque,FAUX,VRAI,FAUX
Praha hl.n.,50.083058,14.436037,République Tchèque,FAUX,VRAI,FAUX
Usti nad Labem hl.n.,50.659563,14.044728,République Tchèque,FAUX,VRAI,FAUX
Odense St.,55.401777,10.386001,Danemark,FAUX,VRAI,FAUX
Lodz Kaliska,51.757416,19.430884,Pologne,FAUX,VRAI,FAUX
Veenendaal Centrum,52.018768,5.549922,Pays-Bas,FAUX,VRAI,FAUX
Charleroi-Ouest,50.411461,4.437012,Belgique,FAUX,VRAI,FAUX
Liestal,47.484375,7.731352,Suisse,FAUX,VRAI,FAUX
Sissach,47.462747,7.812021,Suisse,FAUX,VRAI,FAUX
Tavannes,47.220299,7.201141,Suisse,FAUX,VRAI,FAUX
Laufen,47.419338,7.50263,Suisse,FAUX,VRAI,FAUX
Tramelan,47.222798,7.10555,Suisse,FAUX,VRAI,FAUX
Saignelegier,47.254377,6.994057,Suisse,FAUX,VRAI,FAUX
Oensingen,47.28503,7.709868,Suisse,FAUX,VRAI,FAUX
Balsthal,47.313239,7.694316,Suisse,FAUX,VRAI,FAUX
Frick,47.507298,8.013128,Suisse,FAUX,VRAI,FAUX
Stein-Sackingen,47.541583,7.948819,Suisse,FAUX,VRAI,FAUX
Laufenburg,47.559768,8.061292,Suisse,FAUX,VRAI,FAUX
Rolle,46.462733,6.336415,Suisse,FAUX,VRAI,FAUX
Renens VD,46.537056,6.578926,Suisse,FAUX,VRAI,FAUX
Vevey,46.462985,6.843424,Suisse,FAUX,VRAI,FAUX
Chateau-d'Oex,46.475327,7.132787,Suisse,FAUX,VRAI,FAUX
Rougemont,46.488991,7.209555,Suisse,FAUX,VRAI,FAUX
Saanen,46.488559,7.260227,Suisse,FAUX,VRAI,FAUX
Gstaad,46.474779,7.28439,Suisse,FAUX,VRAI,FAUX
Aigle,46.316856,6.963655,Suisse,FAUX,VRAI,FAUX
Bex,46.25146,7.000673,Suisse,FAUX,VRAI,FAUX
St-Maurice,46.216357,7.002039,Suisse,FAUX,VRAI,FAUX
Sion,46.2274606182505,7.359364628791808,Suisse,FAUX,VRAI,FAUX
Sierre/Siders,46.292118,7.532807,Suisse,FAUX,VRAI,FAUX
Leuk,46.311903,7.642628,Suisse,FAUX,VRAI,FAUX
Furgangen-Bellwald,46.411872,8.152416,Suisse,FAUX,VRAI,FAUX
Morel,46.356373,8.04735,Suisse,FAUX,VRAI,FAUX
Zermatt,46.024599,7.748054,Suisse,FAUX,VRAI,FAUX
Sursee,47.170778,8.097878,Suisse,FAUX,VRAI,FAUX
Menziken,47.240579,8.189119,Suisse,FAUX,VRAI,FAUX
Cham,47.178248,8.457483,Suisse,FAUX,VRAI,FAUX
Wohlen AG,47.348467,8.269788,Suisse,FAUX,VRAI,FAUX
Birmensdorf ZH,47.357448,8.437535,Suisse,FAUX,VRAI,FAUX
Affoltern am Albis,47.276068,8.446588,Suisse,FAUX,VRAI,FAUX
Birr,47.435878,8.217623,Suisse,FAUX,VRAI,FAUX
Meilen,47.269803,8.644287,Suisse,FAUX,VRAI,FAUX
Mannedorf,47.253415,8.692335,Suisse,FAUX,VRAI,FAUX
Uznach,47.224263,8.980691,Suisse,FAUX,VRAI,FAUX
Thalwil,47.295844,8.564517,Suisse,FAUX,VRAI,FAUX
Richterswil,47.208361,8.707464,Suisse,FAUX,VRAI,FAUX
Lachen,47.190068,8.852702,Suisse,FAUX,VRAI,FAUX
Ziegelbrucke,47.136142,9.060029,Suisse,FAUX,VRAI,FAUX
Glarus,47.039922,9.071563,Suisse,FAUX,VRAI,FAUX
Schwanden GL,46.996854,9.077442,Suisse,FAUX,VRAI,FAUX
Linthal,46.925947,8.997563,Suisse,FAUX,VRAI,FAUX
Pfaffikon ZH,47.367075,8.78478,Suisse,FAUX,VRAI,FAUX
Glattfelden,47.548576,8.524039,Suisse,FAUX,VRAI,FAUX
Eglisau,47.572362,8.516542,Suisse,FAUX,VRAI,FAUX
Huntwangen-Wil,47.581261,8.512847,Suisse,FAUX,VRAI,FAUX
Rafz,47.60377,8.543419,Suisse,FAUX,VRAI,FAUX
Jestetten,47.654406,8.573282,Allemagne,FAUX,VRAI,FAUX
Neuhausen,47.683136,8.624916,Suisse,FAUX,VRAI,FAUX
Turgi,47.491755,8.253454,Suisse,FAUX,VRAI,FAUX
Baden,47.476438,8.307578,Suisse,FAUX,VRAI,FAUX
Killwangen-Spreitenbach,47.433334,8.354187,Suisse,FAUX,VRAI,FAUX
Romont,46.693504,6.911796,Suisse,FAUX,VRAI,FAUX
Bulle,46.618148,7.054932,Suisse,FAUX,VRAI,FAUX
St-Imier,47.152251,7.001023,Suisse,FAUX,VRAI,FAUX
Le Locle,47.057855000000004,6.746152,Suisse,FAUX,VRAI,FAUX
Kerzers,46.975073,7.19279,Suisse,FAUX,VRAI,FAUX
Ins,46.99983,7.099554,Suisse,FAUX,VRAI,FAUX
Kussnacht am Rigi,47.083591,8.433499,Suisse,FAUX,VRAI,FAUX
Brunnen,46.999165,8.610065,Suisse,FAUX,VRAI,FAUX
Fluelen,46.901721,8.624295,Suisse,FAUX,VRAI,FAUX
Altdorf,46.875734,8.631577,Suisse,FAUX,VRAI,FAUX
Erstfeld,46.821043,8.650957,Suisse,FAUX,VRAI,FAUX
Realp,46.598785,8.503777,Suisse,FAUX,VRAI,FAUX
Bellinzona,46.19543,9.029529,Suisse,FAUX,VRAI,FAUX
Locarno,46.172418,8.801356,Suisse,FAUX,VRAI,FAUX
Embrach-Rorbas,47.520584,8.587071,Suisse,FAUX,VRAI,FAUX
Andelfingen,47.594331,8.678006,Suisse,FAUX,VRAI,FAUX
Weinfelden,47.566213,9.10636,Suisse,FAUX,VRAI,FAUX
Steckborn,47.66451,8.981014,Suisse,FAUX,VRAI,FAUX
Stein am Rhein,47.656105,8.855021,Suisse,FAUX,VRAI,FAUX
Flawil,47.415284,9.189663,Suisse,FAUX,VRAI,FAUX
Sulgen,47.53938,9.182292,Suisse,FAUX,VRAI,FAUX
Appenzell,47.328314,9.40882,Suisse,FAUX,VRAI,FAUX
Ebnat-Kappel,47.263663,9.120994,Suisse,FAUX,VRAI,FAUX
Rheineck,47.466891,9.590869,Suisse,FAUX,VRAI,FAUX
Au SG,47.436103,9.641254,Suisse,FAUX,VRAI,FAUX
Heerbrugg,47.410394,9.627231,Suisse,FAUX,VRAI,FAUX
Teufen,47.390267,9.390086,Suisse,FAUX,VRAI,FAUX
Schwarzenburg,46.819190999999996,7.342838,Suisse,FAUX,VRAI,FAUX
Schonried,46.504533,7.291078,Suisse,FAUX,VRAI,FAUX
Saanenmoser,46.517594,7.311708,Suisse,FAUX,VRAI,FAUX
Lenk im Simmental,46.45858,7.443517,Suisse,FAUX,VRAI,FAUX
Goppenstein,46.367744,7.75502,Suisse,FAUX,VRAI,FAUX
Kandersteg,46.495544,7.671268,Suisse,FAUX,VRAI,FAUX
Frutigen,46.588708,7.651609,Suisse,FAUX,VRAI,FAUX
Herzogenbuchsee,47.188091,7.70095,Suisse,FAUX,VRAI,FAUX
Huttwil,47.114595,7.842728,Suisse,FAUX,VRAI,FAUX
Konolfingen,46.881298,7.621135,Suisse,FAUX,VRAI,FAUX
Brienz,46.754838,8.038927,Suisse,FAUX,VRAI,FAUX
Meiringen,46.727313,8.184219,Suisse,FAUX,VRAI,FAUX
Brunig-Hasliberg,46.757858,8.139049,Suisse,FAUX,VRAI,FAUX
Giswil,46.836532,8.186305,Suisse,FAUX,VRAI,FAUX
Sachseln,46.870951,8.23829,Suisse,FAUX,VRAI,FAUX
Alpnachstad,46.955036,8.277833,Suisse,FAUX,VRAI,FAUX
Stansstad,46.976278,8.336335,Suisse,FAUX,VRAI,FAUX
Landquart,46.967451,9.554059,Suisse,FAUX,VRAI,FAUX
Bad Ragaz,47.010302,9.505229,Suisse,FAUX,VRAI,FAUX
Grusch,46.980494,9.645803,Suisse,FAUX,VRAI,FAUX
Kublis,46.91427,9.771831,Suisse,FAUX,VRAI,FAUX
Davos Dorf,46.809708,9.8421,Suisse,FAUX,VRAI,FAUX
Ilanz,46.775351,9.207444,Suisse,FAUX,VRAI,FAUX
Thusis,46.698673,9.440633,Suisse,FAUX,VRAI,FAUX
Tiefencastel,46.663876,9.572864,Suisse,FAUX,VRAI,FAUX
Filisur,46.675301,9.682272,Suisse,FAUX,VRAI,FAUX
Bergun/Bravuogn,46.631065,9.746742,Suisse,FAUX,VRAI,FAUX
Samedan,46.533757,9.873643,Suisse,FAUX,VRAI,FAUX
Celerina,46.51399,9.858469,Suisse,FAUX,VRAI,FAUX
Pontresina,46.490609,9.896116,Suisse,FAUX,VRAI,FAUX
Zuoz,46.599936,9.961495,Suisse,FAUX,VRAI,FAUX
Zernez,46.697657,10.089933,Suisse,FAUX,VRAI,FAUX
Scuol-Tarasp,46.79377,10.286212,Suisse,FAUX,VRAI,FAUX
Buchs SG,47.168395,9.47863,Suisse,FAUX,VRAI,FAUX
Flums,47.096617,9.347927,Suisse,FAUX,VRAI,FAUX
Unterterzen,47.113849,9.255005,Suisse,FAUX,VRAI,FAUX
Mendrisio,45.868348,8.978021,Suisse,FAUX,VRAI,FAUX
Dornach-Arlesheim,47.489265,7.610842,Suisse,FAUX,VRAI,FAUX
Morges,46.511104,6.493942,Suisse,FAUX,VRAI,FAUX
Leysin-Feydey,46.344444,7.008358,Suisse,FAUX,VRAI,FAUX
Fiesch,46.403045,8.132612,Suisse,FAUX,VRAI,FAUX
Schonenwerd SO,47.371426,8.000165,Suisse,FAUX,VRAI,FAUX
Rotkreuz,47.14176,8.430479,Suisse,FAUX,VRAI,FAUX
Goschenen,46.665809,8.588797,Suisse,FAUX,VRAI,FAUX
Andermatt,46.636908,8.593435,Suisse,FAUX,VRAI,FAUX
Kreuzlingen,47.652554,9.169087,Suisse,FAUX,VRAI,FAUX
Belp,46.888885,7.498585,Suisse,FAUX,VRAI,FAUX
Murren BLM,46.564113999999996,7.897257,Suisse,FAUX,VRAI,FAUX
Grindelwald,46.624368,8.0333,Suisse,FAUX,VRAI,FAUX
Disentis/Muster,46.704975,8.855021,Suisse,FAUX,VRAI,FAUX
Sargans,47.044794,9.446269,Suisse,FAUX,VRAI,FAUX
Visp,46.294024,7.881454,Suisse,FAUX,VRAI,FAUX
Lauterbrunnen,46.598434,7.90809,Suisse,FAUX,VRAI,FAUX
Interlaken Ost,46.690691,7.868977,Suisse,FAUX,VRAI,FAUX
Plzen hl.n.,49.743167,13.388246,République Tchèque,FAUX,VRAI,FAUX
Herning St.,56.132394,8.979234,Danemark,FAUX,VRAI,FAUX
Nykobing Falster St.,54.766833,11.87777,Danemark,FAUX,VRAI,FAUX
Tirano,46.215152,10.166763,Italie,FAUX,VRAI,FAUX
Como San Giovanni,45.806467,9.073441,Italie,FAUX,VRAI,FAUX
Leiden Lammenschans,52.146693,4.492736,Pays-Bas,FAUX,VRAI,FAUX
Ronneby station,56.206636,15.283351,Suède,FAUX,VRAI,FAUX
Ancona,43.607597,13.497797,Italie,FAUX,VRAI,FAUX
Catania Centrale,37.506574,15.10016,Italie,FAUX,VRAI,FAUX
Ciampino,41.804298,12.599523,Italie,FAUX,VRAI,FAUX
Bari Centrale,41.117702,16.870172,Italie,FAUX,VRAI,FAUX
Benevento,41.141739,14.770112,Italie,FAUX,VRAI,FAUX
Catanzaro (Germaneto),38.896126,16.599354,Italie,FAUX,VRAI,FAUX
Livorno Centrale,43.553986,10.336624,Italie,FAUX,VRAI,FAUX
Oliveri-Tindari,38.128357,15.056572,Italie,FAUX,VRAI,FAUX
Pescara Centrale,42.468556,14.204035,Italie,FAUX,VRAI,FAUX
Palermo Centrale,38.109417,13.367472,Italie,FAUX,VRAI,FAUX
Montecatini Centro,43.881319,10.770371,Italie,FAUX,VRAI,FAUX
Lamezia Terme Centrale,38.921161,16.25602,Italie,FAUX,VRAI,FAUX
Prato Centrale,43.879063,11.109309,Italie,FAUX,VRAI,FAUX
Modugno citta,41.086555,16.779336,Italie,FAUX,VRAI,FAUX
Messina Centrale,38.18454,15.561792,Italie,FAUX,VRAI,FAUX
Gorizia Centrale,45.933305,13.606935,Italie,FAUX,VRAI,FAUX
Igea Marina,44.130653,12.482852,Italie,FAUX,VRAI,FAUX
Pisa Centrale,43.707971,10.398173,Italie,FAUX,VRAI,FAUX
Brolo-Ficarra,38.159074,14.830232,Italie,FAUX,VRAI,FAUX
Cervia-Milano Marittima,44.258443,12.347088,Italie,FAUX,VRAI,FAUX
Malpensa Aeroporto T1,45.62724,8.711086,Italie,FAUX,VRAI,VRAI
Reggio Emilia,44.697674,10.643048,Italie,FAUX,VRAI,FAUX
Treviso Centrale,45.6597,12.245132,Italie,FAUX,VRAI,FAUX
Trieste Centrale,45.657408,13.770431,Italie,FAUX,VRAI,FAUX
Agrigento Centrale,37.309063,13.584417,Italie,FAUX,VRAI,FAUX
Civitavecchia,42.087854,11.799276,Italie,FAUX,VRAI,FAUX
La Spezia Centrale,44.111685,9.813676,Italie,FAUX,VRAI,FAUX
Cattolica-San Giovanni-Gabicce,43.959903,12.745022,Italie,FAUX,VRAI,FAUX
Orbetello-Monte Argentario,42.450785,11.248768,Italie,FAUX,VRAI,FAUX
Agropoli-Castellabate,40.351534,15.001755,Italie,FAUX,VRAI,FAUX
Potenza Centrale,40.630109,15.806551,Italie,FAUX,VRAI,FAUX
Todi Ponte Rio,42.7899,12.4185,Italie,FAUX,VRAI,FAUX
Borgo Valsugana Est,46.0522,11.464,Italie,FAUX,VRAI,FAUX
Malles Venosta Mals,46.6842419,10.5487532,Italie,FAUX,VRAI,FAUX
Nardo Citta,40.1815157,18.0406777,Italie,FAUX,VRAI,FAUX
Luxembourg Gare Centrale (Quai 13),49.599138,6.133244,Luxembourg,FAUX,VRAI,FAUX
Zagreb Autobusni Kolodvor,45.803778,15.993229,Croatie,FAUX,VRAI,FAUX
Wien Hbf,48.184923,16.375864,Autriche,FAUX,VRAI,FAUX
Zaragoza Delicias,41.658439,-0.909906,Espagne,FAUX,VRAI,FAUX
Bastogne-Sud,49.999737,5.709858,Belgique,FAUX,VRAI,FAUX
Aranguren Apeadero,43.210823,-3.115876,Espagne,FAUX,VRAI,FAUX
Cellers-Llimiana,42.062729,0.875639,Espagne,FAUX,VRAI,FAUX
Cuenca Estacion,40.067288,-2.136562,Espagne,FAUX,VRAI,FAUX
Guadalajara Estacion,40.642778,-3.183056,Espagne,FAUX,VRAI,FAUX
Lantueno-Santiurde,43.057961,-4.084302,Espagne,FAUX,VRAI,FAUX
Lorca-San Diego,37.680704,-1.684875,Espagne,FAUX,VRAI,FAUX
Sabadell Centre,41.546515,2.115844,Espagne,FAUX,VRAI,FAUX
Sevilla Santa Justa,37.391925,-5.975264,Espagne,FAUX,VRAI,FAUX
Vigo Guixar,42.234396,-8.713468,Espagne,FAUX,VRAI,FAUX
Ardrossan Town,55.639313,-4.812212,Royaume-Uni,FAUX,VRAI,FAUX
Bicester Village,51.893429,-1.148393,Royaume-Uni,FAUX,VRAI,FAUX
Bootle New Strand,53.453357,-2.994676,Royaume-Uni,FAUX,VRAI,FAUX
Catford Station,51.444706,-0.025701,Royaume-Uni,FAUX,VRAI,FAUX
Dorking Station,51.241615,-0.323822,Royaume-Uni,FAUX,VRAI,FAUX
Dudley Port,52.524517,-2.049401,Royaume-Uni,FAUX,VRAI,FAUX
East Malling,51.285748,0.439308,Royaume-Uni,FAUX,VRAI,FAUX
Edenbridge Station,51.208508,0.060099,Royaume-Uni,FAUX,VRAI,FAUX
Ewell West,51.349445,-0.256711,Royaume-Uni,FAUX,VRAI,FAUX
Falmouth Town,50.148392,-5.065443,Royaume-Uni,FAUX,VRAI,FAUX
Gainsborough Central,53.399574,-0.769674,Royaume-Uni,FAUX,VRAI,FAUX
Hampstead Heath,51.555779,-0.165159,Royaume-Uni,FAUX,VRAI,FAUX
Harwich Town,51.944157,1.285469,Royaume-Uni,FAUX,VRAI,FAUX
Hawarden Station,53.185703,-3.032561,Royaume-Uni,FAUX,VRAI,FAUX
Hertford North,51.798328,-0.092961,Royaume-Uni,FAUX,VRAI,FAUX
Kentish Town Station,51.550338000000004,-0.140446,Royaume-Uni,FAUX,VRAI,FAUX
Kenton Station,51.581436,-0.317123,Royaume-Uni,FAUX,VRAI,FAUX
Lelant Station,50.183887,-5.436207,Royaume-Uni,FAUX,VRAI,FAUX
Leyton Midland Road,51.569393,-0.007313,Royaume-Uni,FAUX,VRAI,FAUX
Lichfield Trent Valley,52.6869,-1.800014,Royaume-Uni,FAUX,VRAI,FAUX
Livingston North,55.901736,-3.543357,Royaume-Uni,FAUX,VRAI,FAUX
Lympstone Village,50.648621,-3.431419,Royaume-Uni,FAUX,VRAI,FAUX
Maesteg Station,51.610607,-3.655003,Royaume-Uni,FAUX,VRAI,FAUX
Mansfield Station,53.142232,-1.198192,Royaume-Uni,FAUX,VRAI,FAUX
Matlock Station,53.138126,-1.558988,Royaume-Uni,FAUX,VRAI,FAUX
New Cross Station,51.476299,-0.032984,Royaume-Uni,FAUX,VRAI,FAUX
North Dulwich,51.454712,-0.087163,Royaume-Uni,FAUX,VRAI,FAUX
Norwood Junction,51.396965,-0.075201,Royaume-Uni,FAUX,VRAI,FAUX
Oulton Broad North,52.478226,1.716998,Royaume-Uni,FAUX,VRAI,FAUX
Peckham Rye,51.470585,-0.067782,Royaume-Uni,FAUX,VRAI,FAUX
Pembroke Station,51.673546,-4.905563,Royaume-Uni,FAUX,VRAI,FAUX
Penge East,51.419125,-0.055566,Royaume-Uni,FAUX,VRAI,FAUX
Pevensey Bay,50.818249,0.342453,Royaume-Uni,FAUX,VRAI,FAUX
Pollokshaws East,55.824589,-4.287476,Royaume-Uni,FAUX,VRAI,FAUX
Pollokshields East,55.841103,-4.269287,Royaume-Uni,FAUX,VRAI,FAUX
Pontefract Monkhill,53.698711,-1.304749,Royaume-Uni,FAUX,VRAI,FAUX
Redcar Central,54.615692,-1.069318,Royaume-Uni,FAUX,VRAI,FAUX
Reddish South,53.435873,-2.159028,Royaume-Uni,FAUX,VRAI,FAUX
Rugeley Town,52.754672,-1.936963,Royaume-Uni,FAUX,VRAI,FAUX
Ryde Esplanade,50.733517,-1.159676,Royaume-Uni,FAUX,VRAI,FAUX
Salford Central,53.482913,-2.254686,Royaume-Uni,FAUX,VRAI,FAUX
Smethwick Galton Bridge Low Level,52.501826,-1.980632,Royaume-Uni,FAUX,VRAI,FAUX
South Ruislip,51.556742,-0.398812,Royaume-Uni,FAUX,VRAI,FAUX
Southend Central,51.536972,0.712305,Royaume-Uni,FAUX,VRAI,FAUX
St Budeaux Victoria Road,50.403008,-4.188144,Royaume-Uni,FAUX,VRAI,FAUX
St Helens Central,53.453117,-2.730328,Royaume-Uni,FAUX,VRAI,FAUX
St Leonards Warrior Square,50.855942,0.560326,Royaume-Uni,FAUX,VRAI,FAUX
Stourbridge Town,52.456539,-2.142716,Royaume-Uni,FAUX,VRAI,FAUX
Streatham Station,51.425755,-0.131535,Royaume-Uni,FAUX,VRAI,FAUX
Sydenham Station,51.427208,-0.055232,Royaume-Uni,FAUX,VRAI,FAUX
Thorne North,53.616329,-0.972006,Royaume-Uni,FAUX,VRAI,FAUX
Trefforest Station,51.591419,-3.325157,Royaume-Uni,FAUX,VRAI,FAUX
Wallasey Village,53.422695,-3.069901,Royaume-Uni,FAUX,VRAI,FAUX
Walthamstow Central,51.583092,-0.019715,Royaume-Uni,FAUX,VRAI,FAUX
Walton (Merseyside),53.456346,-2.965794,Royaume-Uni,FAUX,VRAI,FAUX
Wandsworth Town,51.460812,-0.187679,Royaume-Uni,FAUX,VRAI,FAUX
Watford High Street,51.652743,-0.391656,Royaume-Uni,FAUX,VRAI,FAUX
Whyteleafe Station,51.309834,-0.081725,Royaume-Uni,FAUX,VRAI,FAUX
Wigan Wallgate,53.545353,-2.633814,Royaume-Uni,FAUX,VRAI,FAUX
Windsor & Eton Central,51.48275,-0.608806,Royaume-Uni,FAUX,VRAI,FAUX
Winnersh Station,51.430779,-0.87795,Royaume-Uni,FAUX,VRAI,FAUX
Wrexham Central,53.044876,-2.996385,Royaume-Uni,FAUX,VRAI,FAUX
Dublin Connolly,53.3517919991,-6.2495215,Irlande,FAUX,VRAI,FAUX
Biograd na Moru Autobusni Kolodvor,43.937696,15.444132,Croatie,FAUX,VRAI,FAUX
Vodice Autobusni Kolodvor,43.759213,15.778478,Croatie,FAUX,VRAI,FAUX
Trogir Autobusni Kolodvor,43.518345,16.251995,Croatie,FAUX,VRAI,FAUX
Djurdjevac Autobusni Kolodvor,46.03072,17.065283,Croatie,FAUX,VRAI,FAUX
Virovitica Autobusni Kolodvor,45.835641,17.387764,Croatie,FAUX,VRAI,FAUX
Slatina Autobusni Kolodvor,45.706386,17.704483,Croatie,FAUX,VRAI,FAUX
Donji Miholjac Autobusni Kolodvor,45.759286,18.16614,Croatie,FAUX,VRAI,FAUX
Valpovo Autobusni Kolodvor,45.65743,18.418174,Croatie,FAUX,VRAI,FAUX
Opatija Autobusni Kolodvor,45.332921,14.302365,Croatie,FAUX,VRAI,FAUX
Rovinj Autobusni Kolodvor,45.080685,13.638815,Croatie,FAUX,VRAI,FAUX
Ostrava-Vitkovice,49.801803,18.262898,République Tchèque,FAUX,VRAI,FAUX
Imperia,43.892328,8.039091,Italie,FAUX,VRAI,FAUX
Esens Bahnhofstrasse,53.637186,7.612946,Allemagne,FAUX,VRAI,FAUX
Salzburg Hbf Bahnsteige (11-12),47.812859,13.04457,Autriche,FAUX,VRAI,FAUX
Maastricht Station,50.85093,5.70445,Pays-Bas,FAUX,VRAI,FAUX
Aeroport Paris Roissy Charles de Gaulle CDG T2 A-C,49.00302,2.56475,France,FAUX,VRAI,VRAI
Wolfsberg in Ktn Bahnhof,46.842629,14.838417,Autriche,FAUX,VRAI,FAUX
Split Airport,43.5363,16.2997,Croatie,FAUX,VRAI,VRAI
Pula Airport,44.8995039886714,13.9233684539795,Croatie,FAUX,VRAI,VRAI
Lecce,40.346742,18.166197,Italie,FAUX,VRAI,FAUX
Mottola Bivio,40.638821,17.038368,Italie,FAUX,VRAI,FAUX
Barcelona El Prat T1,41.2883292570016,2.07290366292,Espagne,FAUX,VRAI,VRAI
Porto Sao Bento,41.145564,-8.610321,Portugal,FAUX,VRAI,FAUX
Nybro Station,56.742357,15.908875,Suède,FAUX,VRAI,FAUX
Bromolla station,56.067249,14.480759,Suède,FAUX,VRAI,FAUX
Lessebo station,56.750285,15.258658,Suède,FAUX,VRAI,FAUX
Svedala station,55.506906,13.232328,Suède,FAUX,VRAI,FAUX
Ekenassjon station,57.48927,15.019608,Suède,FAUX,VRAI,FAUX
Hovmantorp station,56.78626,15.139884,Suède,FAUX,VRAI,FAUX
Skillingaryd station,57.428377,14.09095,Suède,FAUX,VRAI,FAUX
Vetlanda station,57.425887,15.082182,Suède,FAUX,VRAI,FAUX
Brig Bahnhof,46.318933,7.988246,Suisse,FAUX,VRAI,FAUX
Baar Bahnhof,47.195498,8.523922,Suisse,FAUX,VRAI,FAUX
Aarau Bahnhof,47.392029,8.050864,Suisse,FAUX,VRAI,FAUX
Schaffhausen Bahnhof,47.698849,8.633536,Suisse,FAUX,VRAI,FAUX
Bassersdorf Bahnhof,47.438755,8.626129,Suisse,FAUX,VRAI,FAUX
Horgen Bahnhof,47.261497,8.596114,Suisse,FAUX,VRAI,FAUX
Dudingen Bahnhof,46.850672,7.189833,Suisse,FAUX,VRAI,FAUX
Schwyz Bahnhof,47.026851,8.632044,Suisse,FAUX,VRAI,FAUX
Altstatten SG Bahnhof,47.374006,9.55627,Suisse,FAUX,VRAI,FAUX
Thun Bahnhof,46.755044,7.630061,Suisse,FAUX,VRAI,FAUX
Luzern Bahnhof,47.050709,8.30952,Suisse,FAUX,VRAI,FAUX
Wilderswil Bahnhof,46.665413,7.868941,Suisse,FAUX,VRAI,FAUX
Olten Bahnhof,47.352647,7.90683,Suisse,FAUX,VRAI,FAUX
Bad Zurzach Bahnhof,47.588228,8.295326,Suisse,FAUX,VRAI,FAUX
Zofingen Bahnhof,47.287134,7.9441,Suisse,FAUX,VRAI,FAUX
Wolhusen Bahnhof,47.055581,8.079738,Suisse,FAUX,VRAI,FAUX
Sarnen Bahnhof,46.895375,8.247971,Suisse,FAUX,VRAI,FAUX
Alpnach Dorf Bahnhof,46.940456,8.275397,Suisse,FAUX,VRAI,FAUX
Dielsdorf Bahnhof,47.482955,8.45893,Suisse,FAUX,VRAI,FAUX
Frauenfeld Bahnhof,47.557997,8.896767,Suisse,FAUX,VRAI,FAUX
Thayngen Bahnhof,47.745782,8.704272,Suisse,FAUX,VRAI,FAUX
Uster Bahnhof,47.350921,8.717298,Suisse,FAUX,VRAI,FAUX
Fehraltorf Bahnhof,47.385431,8.749965,Suisse,FAUX,VRAI,FAUX
Einsiedeln Bahnhof,47.12807,8.744454,Suisse,FAUX,VRAI,FAUX
Pfaffikon SZ Bahnhof,47.202905,8.779485,Suisse,FAUX,VRAI,FAUX
Schmerikon Bahnhof,47.225774,8.943412,Suisse,FAUX,VRAI,FAUX
Uzwil Bahnhof,47.435663,9.130541,Suisse,FAUX,VRAI,FAUX
Gossau SG Bahnhof,47.411994,9.253477,Suisse,FAUX,VRAI,FAUX
Wattwil Bahnhof,47.299548,9.086862,Suisse,FAUX,VRAI,FAUX
Urnasch Bahnhof,47.317706,9.285227,Suisse,FAUX,VRAI,FAUX
Walzenhausen Bahnhof,47.450926,9.601144,Suisse,FAUX,VRAI,FAUX
Degersheim Bahnhof,47.372513,9.201115,Suisse,FAUX,VRAI,FAUX
Arbon Bahnhof,47.511127,9.433693,Suisse,FAUX,VRAI,FAUX
St. Moritz Bahnhof,46.497836,9.845165,Suisse,FAUX,VRAI,FAUX
Davos Platz Bahnhof,46.790417,9.820328,Suisse,FAUX,VRAI,FAUX
Effretikon Bahnhof,47.425406,8.686267,Suisse,FAUX,VRAI,FAUX
Illnau Bahnhof,47.408659,8.722916,Suisse,FAUX,VRAI,FAUX
Uerikon Bahnhof,47.236012,8.752751,Suisse,FAUX,VRAI,FAUX
Bubikon Bahnhof,47.270657,8.822597,Suisse,FAUX,VRAI,FAUX
Ruti ZH Bahnhof,47.260292,8.854212,Suisse,FAUX,VRAI,FAUX
Hinwil Bahnhof,47.299449,8.840666,Suisse,FAUX,VRAI,FAUX
Pfungen Bahnhof,47.516269,8.646058,Suisse,FAUX,VRAI,FAUX
Otelfingen Bahnhof,47.455259,8.388131,Suisse,FAUX,VRAI,FAUX
Spiez Bahnhof,46.686295,7.680689,Suisse,FAUX,VRAI,FAUX
Lyss Bahnhof,47.077083,7.305803,Suisse,FAUX,VRAI,FAUX
Bern Bahnhof,46.948115,7.440209,Suisse,FAUX,VRAI,FAUX
Langenthal Bahnhof,47.216865,7.784406,Suisse,FAUX,VRAI,FAUX
Zweisimmen Bahnhof,46.552967,7.375109,Suisse,FAUX,VRAI,FAUX
Muttenz Bahnhof,47.533348,7.648121,Suisse,FAUX,VRAI,FAUX
Herisau Bahnhof,47.389818,9.276535,Suisse,FAUX,VRAI,FAUX
Walenstadt Bahnhof,47.119314,9.312671,Suisse,FAUX,VRAI,FAUX
Lenzburg Bahnhof,47.390833,8.171239,Suisse,FAUX,VRAI,FAUX
Dietikon Bahnhof,47.405828,8.404527,Suisse,FAUX,VRAI,FAUX
Amriswil Bahnhof,47.550284,9.301848,Suisse,FAUX,VRAI,FAUX
Romanshorn Bahnhof,47.564874,9.379066,Suisse,FAUX,VRAI,FAUX
Kloten Bahnhof,47.448832,8.583781,Suisse,FAUX,VRAI,FAUX
Wallisellen Bahnhof,47.412569,8.592465,Suisse,FAUX,VRAI,FAUX
Erlenbach ZH Bahnhof,47.305805,8.591233,Suisse,FAUX,VRAI,FAUX
Wettingen Bahnhof,47.459619000000004,8.316765,Suisse,FAUX,VRAI,FAUX
Glattbrugg Bahnhof,47.430602,8.559474,Suisse,FAUX,VRAI,FAUX
Niederhasli Bahnhof,47.47855,8.488432,Suisse,FAUX,VRAI,FAUX
Schlieren Bahnhof,47.399445,8.448538,Suisse,FAUX,VRAI,FAUX
Leukerbad Bahnhof,46.379763,7.626214,Suisse,FAUX,VRAI,FAUX
Arosa Bahnhof,46.783001,9.679108,Suisse,FAUX,VRAI,FAUX
Bari Centrale FNB,41.118509,16.86897,Italie,FAUX,VRAI,FAUX
Bari Centrale FAL,41.118509,16.86897,Italie,FAUX,VRAI,FAUX
Bjuv Station,56.083007,12.911781,Suède,FAUX,VRAI,FAUX
Engelberg Bahnhof,46.819389,8.402828,Suisse,FAUX,VRAI,FAUX
Wil SG Bahnhof,47.462801,9.04153,Suisse,FAUX,VRAI,FAUX
Chateau-Arnoux-St-Auban,44.08179,6.001625,France,VRAI,FAUX,FAUX
Digne-les-Bains,44.35,6.35,France,VRAI,FAUX,FAUX
Aire-sur-l'Adour,43.703854,-0.258269,France,VRAI,FAUX,FAUX
Menton,43.776486,7.504349,France,VRAI,FAUX,FAUX
Vievola,NA,NA,France,VRAI,FAUX,FAUX
Decazeville,44.55,2.25,France,VRAI,FAUX,FAUX
Vire,48.83897,-0.88928,France,VRAI,FAUX,FAUX
Marans,46.3,-1,France,VRAI,FAUX,FAUX
Pontrieux,48.7,-3.166667,France,VRAI,FAUX,FAUX
Perigueux,45.187408,0.707879,France,VRAI,FAUX,FAUX
Concarneau,47.866667,-3.916667,France,VRAI,FAUX,FAUX
Colomiers,43.616667,1.35,France,VRAI,FAUX,FAUX
Labege,43.533333,1.533333,France,VRAI,FAUX,FAUX
Lunel,43.683333,4.133333,France,VRAI,FAUX,FAUX
Dax,43.720472,-1.050301,France,VRAI,FAUX,FAUX
Reze,47.2,-1.566667,France,VRAI,FAUX,FAUX
Reims,49.25,4.033333,France,VRAI,FAUX,FAUX
Laval,48.076206,-0.760907,France,VRAI,FAUX,FAUX
Louverne,48.133333,-0.7,France,VRAI,FAUX,FAUX
Mayenne,48.3,-0.616667,France,VRAI,FAUX,FAUX
Arnage,47.933333,0.183333,France,VRAI,FAUX,FAUX
Carnac,47.583333,-3.083333,France,VRAI,FAUX,FAUX
St-Pierre-Quiberon,47.516667,-3.133333,France,VRAI,FAUX,FAUX
Forbach,49.183333,6.9,France,VRAI,FAUX,FAUX
Sarreguemines,49.10995,7.067471,France,VRAI,FAUX,FAUX
Nomain,50.5,3.25,France,VRAI,FAUX,FAUX
Croix,NA,NA,France,VRAI,FAUX,FAUX
Jeumont,50.3,4.1,France,VRAI,FAUX,FAUX
Bellegarde-sur-Valserine,46.107874,5.824213,France,VRAI,FAUX,FAUX
Hendaye,43.353132,-1.781724,France,VRAI,FAUX,FAUX
Mertzwiller,48.866667,7.683333,France,VRAI,FAUX,FAUX
Mulhouse,47.742224,7.342396,France,VRAI,FAUX,FAUX
St-Louis (Haut Rhin),47.583333,7.566667,France,VRAI,FAUX,FAUX
Thann,NA,NA,France,VRAI,FAUX,FAUX
Aspach-le-Haut,47.65,7.233333,France,VRAI,FAUX,FAUX
Eu,50.05,1.416667,France,VRAI,FAUX,FAUX
Le Havre,49.492996,0.125677,France,VRAI,FAUX,FAUX
Harfleur,49.506596,0.198269,France,VRAI,FAUX,FAUX
Montivilliers,49.55,0.2,France,VRAI,FAUX,FAUX
Peronne,50,2.65,France,VRAI,FAUX,FAUX
Frejus,43.432032,6.732941,France,VRAI,FAUX,FAUX
St-Hilaire-de-Riez,NA,NA,France,VRAI,FAUX,FAUX
Argenton-sur-Creuse,46.583333,1.516667,France,VRAI,FAUX,FAUX
Versailles,48.7526,2.5735,France,VRAI,FAUX,FAUX
Angers,47.466667,-0.55,France,VRAI,FAUX,FAUX
Avignon,43.95,4.816667,France,VRAI,FAUX,FAUX
Bagnoles-de-l'Orne,NA,NA,France,VRAI,FAUX,FAUX
Bordeaux,44.83773065393117,-0.577431321144104,France,VRAI,FAUX,FAUX
Bourges,47.094145,2.394255,France,VRAI,FAUX,FAUX
Chalons-en-Champagne,48.833333,4.083333,France,VRAI,FAUX,FAUX
Chalons-en-Champagne,48.955252,4.348656,France,VRAI,FAUX,FAUX
Cannes,43.55,7.016667,France,VRAI,FAUX,FAUX
Chateauroux,46.809737,1.699536,France,VRAI,FAUX,FAUX
Chambourg,47.183333,0.966667,France,VRAI,FAUX,FAUX
Colmar,48.083333,7.366667,France,VRAI,FAUX,FAUX
Calais,50.95345262552378,1.850595474243164,France,VRAI,FAUX,FAUX
Chateauroux,46.816667,1.7,France,VRAI,FAUX,FAUX
Clermont-Ferrand,45.783333,3.083333,France,VRAI,FAUX,FAUX
Montauban-de-Bretagne,48.2,-2.05,France,VRAI,FAUX,FAUX
Dijon,47.32337785274246,5.027124881744385,France,VRAI,FAUX,FAUX
Dole,47.1,5.5,France,VRAI,FAUX,FAUX
Dieppe,49.933333,1.083333,France,VRAI,FAUX,FAUX
Dourdan,48.533333,2.016667,France,VRAI,FAUX,FAUX
Massy,48.733333,2.283333,France,VRAI,FAUX,FAUX
La Ferte-Mace,48.589993,-0.358,France,VRAI,FAUX,FAUX
St-Etienne,45.44348229750384,4.399509429931641,France,VRAI,FAUX,FAUX
Roscoff,48.723812,-3.987093,France,VRAI,FAUX,FAUX
Bourgneuf-en-Retz,47.05,-1.95,France,VRAI,FAUX,FAUX
Angerville,48.316667,2,France,VRAI,FAUX,FAUX
Monnerville,48.35,2.05,France,VRAI,FAUX,FAUX
Guillerval,48.366667,2.1,France,VRAI,FAUX,FAUX
Etaples-Le Touquet,50.51686,1.64231,France,VRAI,FAUX,FAUX
Assier,44.666667,1.883333,France,VRAI,FAUX,FAUX
Figeac,44.6,2.033333,France,VRAI,FAUX,FAUX
Fontenay-le-Comte,46.366667,-0.733333,France,VRAI,FAUX,FAUX
Issoudun,46.95,2,France,VRAI,FAUX,FAUX
Montierchaume,46.866667,1.766667,France,VRAI,FAUX,FAUX
Soulac-sur-Mer,NA,NA,France,VRAI,FAUX,FAUX
Naucelle,44.1854793,2.363504,France,VRAI,FAUX,FAUX
Givors,45.583333,4.766667,France,VRAI,FAUX,FAUX
Grenoble,45.166667,5.716667,France,VRAI,FAUX,FAUX
Hombourg-Budange,49.133333,6.766667,France,VRAI,FAUX,FAUX
Hirson,49.916667,4.083333,France,VRAI,FAUX,FAUX
Chartres,48.446853,1.489248,France,VRAI,FAUX,FAUX
Annonay,45.233333,4.666667,France,VRAI,FAUX,FAUX
Serres,44.4246573,5.7184201,France,VRAI,FAUX,FAUX
Neuvy-Sautour,48.033333,3.8,France,VRAI,FAUX,FAUX
Jussey,47.816667,5.9,France,VRAI,FAUX,FAUX
Joue-les-Tours,47.35,0.666667,France,VRAI,FAUX,FAUX
Frejus,43.433333,6.733333,France,VRAI,FAUX,FAUX
Albi,43.933333,2.15,France,VRAI,FAUX,FAUX
La Bernerie-en-Retz,NA,NA,France,VRAI,FAUX,FAUX
La Baule,47.28255163476108,-2.395046353340149,France,VRAI,FAUX,FAUX
Le Chatelard,45.683333,6.15,France,VRAI,FAUX,FAUX
Le Havre,49.493804,0.107675,France,VRAI,FAUX,FAUX
Bologne,48.2,5.133333,France,VRAI,FAUX,FAUX
Gex,46.333333,6.066667,France,VRAI,FAUX,FAUX
Limoges,45.83572150763156,1.2651658058166504,France,VRAI,FAUX,FAUX
Lille,50.63040208723645,3.0709308385849,France,VRAI,FAUX,FAUX
Le Locle,NA,NA,Suisse,VRAI,FAUX,FAUX
Le Mans,48,0.2,France,VRAI,FAUX,FAUX
Limoux,43.066667,2.233333,France,VRAI,FAUX,FAUX
Montlucon,46.333333,2.6,France,VRAI,FAUX,FAUX
Lusigny-sur-Barse,48.25,4.266667,France,VRAI,FAUX,FAUX
Ludon,44.983333,-0.6,France,VRAI,FAUX,FAUX
Laval,48.066667,-0.766667,France,VRAI,FAUX,FAUX
Lyon,45.76765767630457,4.834907054901123,France,VRAI,FAUX,FAUX
Meymac,45.533333,2.166667,France,VRAI,FAUX,FAUX
Font-Romeu,42.505515,2.04011,France,VRAI,FAUX,FAUX
Margaux,45.05,-0.666667,France,VRAI,FAUX,FAUX
Mulhouse,47.75,7.333333,France,VRAI,FAUX,FAUX
Monnaie,47.5,0.783333,France,VRAI,FAUX,FAUX
Chaumont,48.116667,5.133333,France,VRAI,FAUX,FAUX
Moirans,45.333333,5.566667,France,VRAI,FAUX,FAUX
Mondoubleau,47.983333,0.9,France,VRAI,FAUX,FAUX
Margut,49.583333,5.266667,France,VRAI,FAUX,FAUX
Marseille,43.29640973957932,5.371000170707703,France,VRAI,FAUX,FAUX
Moulis-Listrac,NA,NA,France,VRAI,FAUX,FAUX
Masseret,45.533333,1.516667,France,VRAI,FAUX,FAUX
Montelimar,44.566667,4.75,France,VRAI,FAUX,FAUX
Montelimar,44.559079,4.744792,France,VRAI,FAUX,FAUX
Mont-sur-Meurthe,48.55,6.45,France,VRAI,FAUX,FAUX
Munster,48.05,7.133333,France,VRAI,FAUX,FAUX
Marne-la-Vallee,NA,NA,France,VRAI,FAUX,FAUX
Metz,49.119108,6.172686,France,VRAI,FAUX,FAUX
Chateau-du-Loir,NA,NA,France,VRAI,FAUX,FAUX
Benet,46.366667,-0.6,France,VRAI,FAUX,FAUX
Nice,43.69664545590452,7.2719407081604,France,VRAI,FAUX,FAUX
Ferney,46.258577,6.11063,France,VRAI,FAUX,FAUX
Nevers,46.989562,3.158998,France,VRAI,FAUX,FAUX
Nevers,46.987282,3.150743,France,VRAI,FAUX,FAUX
Charbonnieres-les-Bains,45.783333,4.733333,France,VRAI,FAUX,FAUX
Nogent-sur-Seine,48.533333,3.5,France,VRAI,FAUX,FAUX
Fronville,48.4,5.15,France,VRAI,FAUX,FAUX
Naves,45.313952,1.767082,France,VRAI,FAUX,FAUX
Aubenas,44.616667,4.383333,France,VRAI,FAUX,FAUX
Houlgate,49.3,-0.066667,France,VRAI,FAUX,FAUX
Orleans,47.916667,1.9,France,VRAI,FAUX,FAUX
Paris,48.85341,2.3488,France,VRAI,FAUX,FAUX
Montreuil-Bellay,47.133333,-0.15,France,VRAI,FAUX,FAUX
Dives,NA,NA,France,VRAI,FAUX,FAUX
Perigueux,45.183333,0.716667,France,VRAI,FAUX,FAUX
Apach,49.45,6.366667,France,VRAI,FAUX,FAUX
Privas,44.733333,4.6,France,VRAI,FAUX,FAUX
Poitiers,46.582275,0.333241,France,VRAI,FAUX,FAUX
Pont-sur-Seine,48.516667,3.6,France,VRAI,FAUX,FAUX
Poitiers,46.583333,0.333333,France,VRAI,FAUX,FAUX
Pau,43.3,-0.366667,France,VRAI,FAUX,FAUX
Le Puy-en-Velay,45.033333,3.883333,France,VRAI,FAUX,FAUX
Capvern,43.1,0.316667,France,VRAI,FAUX,FAUX
Parempuyre,44.95,-0.583333,France,VRAI,FAUX,FAUX
Pouzauges,46.783333,-0.833333,France,VRAI,FAUX,FAUX
Amiens,49.890746,2.312592,France,VRAI,FAUX,FAUX
Besancon,47.23792,6.02432,France,VRAI,FAUX,FAUX
Langres,47.866667,5.333333,France,VRAI,FAUX,FAUX
Macon,46.3,4.833333,France,VRAI,FAUX,FAUX
Chateau-Renault,47.583333,0.916667,France,VRAI,FAUX,FAUX
Barberey,48.35,4.016667,France,VRAI,FAUX,FAUX
Carignan,49.633333,5.166667,France,VRAI,FAUX,FAUX
Azay-le-Rideau,47.266667,0.466667,France,VRAI,FAUX,FAUX
La Rochelle,46.15251603337616,-1.1455178260803225,France,VRAI,FAUX,FAUX
Rouilly-St-Loup,48.266667,4.15,France,VRAI,FAUX,FAUX
Crancey,48.516667,3.633333,France,VRAI,FAUX,FAUX
Romilly-sur-Seine,48.483333,3.733333,France,VRAI,FAUX,FAUX
Dreux,48.733333,1.366667,France,VRAI,FAUX,FAUX
Dreux,48.7314561,1.3701604,France,VRAI,FAUX,FAUX
Villiers-le-Sec,NA,NA,France,VRAI,FAUX,FAUX
Les Moutiers-en-Retz,NA,NA,France,VRAI,FAUX,FAUX
Cerizay,46.816667,-0.666667,France,VRAI,FAUX,FAUX
St-Andre-les-Vergers,NA,NA,France,VRAI,FAUX,FAUX
Bar-sur-Aube,48.216667,4.716667,France,VRAI,FAUX,FAUX
St-Amand-Longpre,47.683333,1.016667,France,VRAI,FAUX,FAUX
Sarrebourg,48.73808,7.05285,France,VRAI,FAUX,FAUX
Sedan,49.7,4.95,France,VRAI,FAUX,FAUX
Sedan,49.695024,4.930373,France,VRAI,FAUX,FAUX
St-Dizier,48.65,4.816667,France,VRAI,FAUX,FAUX
St-Georges-d'Aurac,45.15,3.533333,France,VRAI,FAUX,FAUX
Segre,47.7,-0.45,France,VRAI,FAUX,FAUX
St-Florentin,48,3.733333,France,VRAI,FAUX,FAUX
St-Leonard-de-Noblat,45.833333,1.483333,France,VRAI,FAUX,FAUX
Ste-Pazanne,47.1,-1.816667,France,VRAI,FAUX,FAUX
Serres,44.433333,5.716667,France,VRAI,FAUX,FAUX
St-Valery-en-Caux,49.8,1.316667,France,VRAI,FAUX,FAUX
Strasbourg,48.58333,7.74593,France,VRAI,FAUX,FAUX
Bitche,49.05,7.433333,France,VRAI,FAUX,FAUX
Chateau-Gontier,47.85,-0.95,France,VRAI,FAUX,FAUX
Enveitg,NA,NA,France,VRAI,FAUX,FAUX
Neuille-Pont-Pierre,47.55,0.55,France,VRAI,FAUX,FAUX
Torfou,NA,NA,France,VRAI,FAUX,FAUX
Thiers,NA,NA,France,VRAI,FAUX,FAUX
Thoiry,NA,NA,France,VRAI,FAUX,FAUX
Toulouse,43.60446386099808,1.444004774093628,France,VRAI,FAUX,FAUX
Nantes,47.217251,-1.553364,France,VRAI,FAUX,FAUX
Tours,NA,NA,France,VRAI,FAUX,FAUX
Troyes,NA,NA,France,VRAI,FAUX,FAUX
Pierre-Buffiere,45.7,1.35,France,VRAI,FAUX,FAUX
Gudmont,48.35,5.133333,France,VRAI,FAUX,FAUX
Urt,NA,NA,France,VRAI,FAUX,FAUX
Rouen,49.443129,1.099319,France,VRAI,FAUX,FAUX
Aubusson,45.95473010854736,2.1672892570495605,France,VRAI,FAUX,FAUX
Eurville,48.583333,5.033333,France,VRAI,FAUX,FAUX
Uzerche,NA,NA,France,VRAI,FAUX,FAUX
Valence,44.93324,4.89236,France,VRAI,FAUX,FAUX
Le Verdon,NA,NA,France,VRAI,FAUX,FAUX
Vendeuvre,NA,NA,France,VRAI,FAUX,FAUX
Ventimiglia,NA,NA,Italie,VRAI,FAUX,FAUX
Vitry-le-Francois,NA,NA,France,VRAI,FAUX,FAUX
Blonville,49.316667,0.033333,France,VRAI,FAUX,FAUX
Villeneuve-St-Georges,48.730172,2.446243,France,VRAI,FAUX,FAUX
Villedieu-les-Poeles,NA,NA,France,VRAI,FAUX,FAUX
Villers-sur-Mer,NA,NA,France,VRAI,FAUX,FAUX
La Voulte,44.8,4.783333,France,VRAI,FAUX,FAUX
Vignory,NA,NA,France,VRAI,FAUX,FAUX
Vierzon,NA,NA,France,VRAI,FAUX,FAUX
Vitry-la-Ville,NA,NA,France,VRAI,FAUX,FAUX
Ervy-le-Chatel,48.033333,3.916667,France,VRAI,FAUX,FAUX
Mirecourt,48.3,6.133333,France,VRAI,FAUX,FAUX
Longuyon,NA,NA,France,VRAI,FAUX,FAUX
Montmedy,49.516667,5.366667,France,VRAI,FAUX,FAUX
Cons-la-Grandville,NA,NA,France,VRAI,FAUX,FAUX
Longwy,49.516667,5.766667,France,VRAI,FAUX,FAUX
Creutzwald,49.2,6.683333,France,VRAI,FAUX,FAUX
Sarrebourg,NA,NA,France,VRAI,FAUX,FAUX
Wissembourg,NA,NA,France,VRAI,FAUX,FAUX
Boulogne-sur-Mer,50.769634,1.611385,France,VRAI,FAUX,FAUX
Cagnes-sur-Mer,43.666667,7.15,France,VRAI,FAUX,FAUX
Dax,43.710323,-1.053658,France,VRAI,FAUX,FAUX
Hendaye,43.366667,-1.783333,France,VRAI,FAUX,FAUX
Montbeliard,47.5105086,6.8013763,France,VRAI,FAUX,FAUX
Sallanches-Combloux-Megeve,45.935702,6.636431,France,VRAI,FAUX,FAUX
Saumur,47.266667,-0.083333,France,VRAI,FAUX,FAUX
Tourcoing,NA,NA,France,VRAI,FAUX,FAUX
Vendome,NA,NA,France,VRAI,FAUX,FAUX
Basel,47.567,7.583,Suisse,VRAI,FAUX,FAUX
Zornhoff,NA,NA,France,VRAI,FAUX,FAUX
Antwerpen,51.221722,4.40586,Belgique,VRAI,FAUX,FAUX
Blandain Ville,50.617431,3.26374,Belgique,VRAI,FAUX,FAUX
Bruxelles,50.846519579618374,4.351739287376404,Belgique,VRAI,FAUX,FAUX
Quevy Ville,NA,NA,Belgique,VRAI,FAUX,FAUX
Sterpenich Ville,NA,NA,Belgique,VRAI,FAUX,FAUX
Sarnen,46.894584,8.247486,Suisse,VRAI,FAUX,FAUX
Aarau,47.391373,8.051251,Suisse,VRAI,FAUX,FAUX
Uzwil,47.436454,9.130981,Suisse,VRAI,FAUX,FAUX
Wil SG,47.462406,9.040981,Suisse,VRAI,FAUX,FAUX
Wattwil,47.299485,9.086485,Suisse,VRAI,FAUX,FAUX
Wettingen,47.459484,8.315839,Suisse,VRAI,FAUX,FAUX
Lenzburg,47.391193,8.170376,Suisse,VRAI,FAUX,FAUX
Wallisellen,47.412731,8.591907,Suisse,VRAI,FAUX,FAUX
Walenstadt,47.119854,9.312977,Suisse,VRAI,FAUX,FAUX
Zofingen,47.288024,7.943111,Suisse,VRAI,FAUX,FAUX
Schwyz,47.026366,8.632143,Suisse,VRAI,FAUX,FAUX
Baar,47.195642,8.523427,Suisse,VRAI,FAUX,FAUX
Thun,46.754856,7.629576,Suisse,VRAI,FAUX,FAUX
Herisau,47.390159,9.276813,Suisse,VRAI,FAUX,FAUX
Ruti ZH,47.26049,8.854069,Suisse,VRAI,FAUX,FAUX
Bubikon,47.270792,8.823047,Suisse,VRAI,FAUX,FAUX
Arbon,47.510579,9.43336,Suisse,VRAI,FAUX,FAUX
Altstatten SG,47.374221,9.556522,Suisse,VRAI,FAUX,FAUX
Amriswil,47.550446,9.302235,Suisse,VRAI,FAUX,FAUX
Lyss,47.076562,7.305794,Suisse,VRAI,FAUX,FAUX
Les Verrieres Ville,NA,NA,Suisse,VRAI,FAUX,FAUX
Effretikon,47.425739,8.68695,Suisse,VRAI,FAUX,FAUX
Degersheim,47.372127,9.199551,Suisse,VRAI,FAUX,FAUX
Le Chatelard Ville,NA,NA,Suisse,VRAI,FAUX,FAUX
Romanshorn,47.56553,9.379362,Suisse,VRAI,FAUX,FAUX
Frauenfeld,47.558168,8.896552,Suisse,VRAI,FAUX,FAUX
Pfaffikon SZ,47.203013,8.778101,Suisse,VRAI,FAUX,FAUX
Uster,47.350373,8.718673,Suisse,VRAI,FAUX,FAUX
Wolhusen,47.055482,8.079756,Suisse,VRAI,FAUX,FAUX
Zweisimmen,46.553093,7.375325,Suisse,VRAI,FAUX,FAUX
Gossau SG,47.411823,9.253046,Suisse,VRAI,FAUX,FAUX
Vernayaz,NA,NA,Suisse,VRAI,FAUX,FAUX
Leukerbad,46.379781,7.626457,Suisse,VRAI,FAUX,FAUX
Davos,NA,NA,Suisse,VRAI,FAUX,FAUX
Davos Platz,46.791469,9.820778,Suisse,VRAI,FAUX,FAUX
Dietikon,47.406205,8.405084,Suisse,VRAI,FAUX,FAUX
Grenchen,47.172881,7.421647,Suisse,VRAI,FAUX,FAUX
Klosters,NA,NA,Suisse,VRAI,FAUX,FAUX
Monthey,46.255671,6.95522,Suisse,VRAI,FAUX,FAUX
Neuchatel,NA,NA,Suisse,VRAI,FAUX,FAUX
Luzern,47.050142,8.31068,Suisse,VRAI,FAUX,FAUX
Lausanne,NA,NA,Suisse,VRAI,FAUX,FAUX
Rorschach,NA,NA,Suisse,VRAI,FAUX,FAUX
St-Gallen,NA,NA,Suisse,VRAI,FAUX,FAUX
St-Moritz,46.498187,9.846631,Suisse,VRAI,FAUX,FAUX
Vallorbe,NA,NA,Suisse,VRAI,FAUX,FAUX
Winthertur,NA,NA,Suisse,VRAI,FAUX,FAUX
Les Marecottes,NA,NA,Suisse,VRAI,FAUX,FAUX
Finhaut,NA,NA,Suisse,VRAI,FAUX,FAUX
Einsiedeln,47.130335,8.745722,Suisse,VRAI,FAUX,FAUX
Langenthal,47.217288,7.784721,Suisse,VRAI,FAUX,FAUX
Geneve,NA,NA,Suisse,VRAI,FAUX,FAUX
Spiez,46.686394,7.680095,Suisse,VRAI,FAUX,FAUX
Martigny,NA,NA,Suisse,VRAI,FAUX,FAUX
Olten,47.352009,7.907621,Suisse,VRAI,FAUX,FAUX
Schaffhausen,47.698283000000004,8.632736,Suisse,VRAI,FAUX,FAUX
Zurich,47.378968,8.540534,Suisse,VRAI,FAUX,FAUX
Interlaken,46.683333,7.85,Suisse,VRAI,FAUX,FAUX
Ciruelos,39.9385333,-3.6148151,Espagne,VRAI,FAUX,FAUX
Pola de Lena,43.16089,-5.828784,Espagne,VRAI,FAUX,FAUX
Toledo,39.8624,-4.01125,Espagne,VRAI,FAUX,FAUX
Parga,43.163764,-7.837029,Espagne,VRAI,FAUX,FAUX
Ataquines,41.187441,-4.77191,Espagne,VRAI,FAUX,FAUX
Lleida,41.620775,0.63302,Espagne,VRAI,FAUX,FAUX
Santiago de Compostela,42.870518,-8.544687,Espagne,VRAI,FAUX,FAUX
Pedro Abad,37.9671051,-4.455518,Espagne,VRAI,FAUX,FAUX
Manzanares,NA,NA,Espagne,VRAI,FAUX,FAUX
Orense,NA,NA,Espagne,VRAI,FAUX,FAUX
Jaca,42.578261,-0.538759,Espagne,VRAI,FAUX,FAUX
Sarria,42.784392,-7.418725,Espagne,VRAI,FAUX,FAUX
Guadalajara,40.632399,-3.160243,Espagne,VRAI,FAUX,FAUX
Algeciras,NA,NA,Espagne,VRAI,FAUX,FAUX
Andorre,NA,NA,Espagne,VRAI,FAUX,FAUX
Barcelona,41.38227072942428,2.177385091781616,Espagne,VRAI,FAUX,FAUX
Burgos,42.35,-3.7,Espagne,VRAI,FAUX,FAUX
Canfranc,NA,NA,Espagne,VRAI,FAUX,FAUX
Cuenca,40.070409,-2.137628,Espagne,VRAI,FAUX,FAUX
Fuentes de Onoro,NA,NA,Espagne,VRAI,FAUX,FAUX
Figueres,42.264951,2.969271,Espagne,VRAI,FAUX,FAUX
Girona,41.979516,2.816482,Espagne,VRAI,FAUX,FAUX
Granada,37.183906,-3.609061,Espagne,VRAI,FAUX,FAUX
Irun,NA,NA,Espagne,VRAI,FAUX,FAUX
Leon,42.595888,-5.582382,Espagne,VRAI,FAUX,FAUX
Madrid,40.416824,-3.703733,Espagne,VRAI,FAUX,FAUX
Cordoba,37.888714,-4.789353,Espagne,VRAI,FAUX,FAUX
Las Rosas,NA,NA,Espagne,VRAI,FAUX,FAUX
Salamanca,40.971547,-5.648659,Espagne,VRAI,FAUX,FAUX
Sevilla,37.389254,-5.984458,Espagne,VRAI,FAUX,FAUX
Tui,42.0565,-8.64302,Espagne,VRAI,FAUX,FAUX
Valencia de Alcantar,NA,NA,Espagne,VRAI,FAUX,FAUX
Vigo,42.236541,-8.713736,Espagne,VRAI,FAUX,FAUX
Aachen,50.77607,6.08378,Allemagne,VRAI,FAUX,FAUX
Bad Reichenhall,47.731165,12.88182,Allemagne,VRAI,FAUX,FAUX
Salzburg,47.7981346,13.0464806,Autriche,VRAI,FAUX,FAUX
Mullheim (Baden),47.80974,7.599327,Allemagne,VRAI,FAUX,FAUX
Bochum,51.478651,7.224109,Allemagne,VRAI,FAUX,FAUX
Mannheim,49.479295999056305,8.469530940055847,Allemagne,VRAI,FAUX,FAUX
Neustadt,49.34961,8.140379,Allemagne,VRAI,FAUX,FAUX
Wuppertal,51.254334,7.149381,Allemagne,VRAI,FAUX,FAUX
Dresden,51.040562,13.732038,Allemagne,VRAI,FAUX,FAUX
Berlin,52.520501,13.386987,Allemagne,VRAI,FAUX,FAUX
Bitburg,NA,NA,Allemagne,VRAI,FAUX,FAUX
Bremerhaven,53.534916,8.599557,Allemagne,VRAI,FAUX,FAUX
Bonn,50.732007,7.097136,Allemagne,VRAI,FAUX,FAUX
Koln,50.941312,6.967206,Allemagne,VRAI,FAUX,FAUX
Dusseldorf,51.21996,6.794316,Allemagne,VRAI,FAUX,FAUX
Frankfurt (Main),50.107149,8.663785,Allemagne,VRAI,FAUX,FAUX
Freudenstadt,48.460325,8.428807,Allemagne,VRAI,FAUX,FAUX
Hannover,52.376763,9.741016,Allemagne,VRAI,FAUX,FAUX
Hamburg,53.563816,9.965836,Allemagne,VRAI,FAUX,FAUX
Heidelberg,49.403779,8.675741,Allemagne,VRAI,FAUX,FAUX
Hersbruck (Pegnitz),49.503928,11.426611,Allemagne,VRAI,FAUX,FAUX
Kehl,NA,NA,Allemagne,VRAI,FAUX,FAUX
Krefeld,51.325772,6.570224,Allemagne,VRAI,FAUX,FAUX
Karlsruhe,48.99350964955472,8.401848077774048,Allemagne,VRAI,FAUX,FAUX
Konstanz,NA,NA,Allemagne,VRAI,FAUX,FAUX
Konstanz,47.658757,9.177312,Allemagne,VRAI,FAUX,FAUX
Lubeck,53.867768,10.670348,Allemagne,VRAI,FAUX,FAUX
Leverkusen,51.041971700000005,7.0038956499999845,Allemagne,VRAI,FAUX,FAUX
Mittenwald,NA,NA,Allemagne,VRAI,FAUX,FAUX
Munchen,48.140228,11.558337999999999,Allemagne,VRAI,FAUX,FAUX
Freiburg (Breisgau),47.9954,7.8495,Allemagne,VRAI,FAUX,FAUX
Pfronten,NA,NA,Allemagne,VRAI,FAUX,FAUX
Pforzheim,48.894154,8.703095,Allemagne,VRAI,FAUX,FAUX
Puttgarden,NA,NA,Allemagne,VRAI,FAUX,FAUX
Bad-Reichenhall,NA,NA,Allemagne,VRAI,FAUX,FAUX
Remscheid,51.17727,7.199622,Allemagne,VRAI,FAUX,FAUX
Salzgitter,52.106134,10.390649,Allemagne,VRAI,FAUX,FAUX
Solingen,51.160909,7.004241,Allemagne,VRAI,FAUX,FAUX
Sulzbach Rosenberg,NA,NA,Allemagne,VRAI,FAUX,FAUX
Stuttgart,48.784081,9.181636,Allemagne,VRAI,FAUX,FAUX
Schweinfurt,50.035316,10.212923,Allemagne,VRAI,FAUX,FAUX
Wiesbaden,50.070788,8.243728,Allemagne,VRAI,FAUX,FAUX
Potsdam,52.391703,13.066782,Allemagne,VRAI,FAUX,FAUX
Ashford,NA,NA,Royaume-Uni,VRAI,FAUX,FAUX
Birmingham,52.483056,-1.893611,Royaume-Uni,VRAI,FAUX,FAUX
Bristol,NA,NA,Royaume-Uni,VRAI,FAUX,FAUX
Cardiff,NA,NA,Royaume-Uni,VRAI,FAUX,FAUX
Dover,NA,NA,Royaume-Uni,VRAI,FAUX,FAUX
Exeter,50.716667,-3.516667,Royaume-Uni,VRAI,FAUX,FAUX
Folkestone,51.081,1.166,Royaume-Uni,VRAI,FAUX,FAUX
Gatwick,NA,NA,Royaume-Uni,VRAI,FAUX,FAUX
Glasgow,55.858,-4.259,Royaume-Uni,VRAI,FAUX,FAUX
Jersey,NA,NA,Royaume-Uni,VRAI,FAUX,FAUX
London,51.50469232881583,-0.0784599781036377,Royaume-Uni,VRAI,FAUX,FAUX
Manchester,53.483333,-2.25,Royaume-Uni,VRAI,FAUX,FAUX
Newhaven,50.8,0.06,Royaume-Uni,VRAI,FAUX,FAUX
Hull,NA,NA,Royaume-Uni,VRAI,FAUX,FAUX
Weymouth,NA,NA,Royaume-Uni,VRAI,FAUX,FAUX
Gatwick,NA,NA,Royaume-Uni,VRAI,FAUX,FAUX
Firenze,43.7725042,11.2551002,Italie,VRAI,FAUX,FAUX
Genova,44.41633306978571,8.918988704681395,Italie,VRAI,FAUX,FAUX
Limone,NA,NA,Italie,VRAI,FAUX,FAUX
Milano,45.466632090847824,9.19059991836548,Italie,VRAI,FAUX,FAUX
Padova,45.417827,11.88062,Italie,VRAI,FAUX,FAUX
Roma,41.8932225,12.4829203,Italie,VRAI,FAUX,FAUX
Torino,45.07075504730648,7.686063051223755,Italie,VRAI,FAUX,FAUX
Venezia,45.43711,12.33475,Italie,VRAI,FAUX,FAUX
Verona,NA,NA,Italie,VRAI,FAUX,FAUX
Bettembourg,NA,NA,Luxembourg,VRAI,FAUX,FAUX
Amsterdam,52.37863816394399,4.900825023651123,Pays-Bas,VRAI,FAUX,FAUX
Den Haag,52.081,4.3087,Pays-Bas,VRAI,FAUX,FAUX
Eindhoven,51.443063,5.47995,Pays-Bas,VRAI,FAUX,FAUX
Santa Comba Dao,40.3974501,-8.1297273,Portugal,VRAI,FAUX,FAUX
Santarem,39.298988,-8.650815,Portugal,VRAI,FAUX,FAUX
Caldas da Rainha,39.4048977,-9.135404,Portugal,VRAI,FAUX,FAUX
Fundao,40.137963,-7.5010773,Portugal,VRAI,FAUX,FAUX
Lagos,37.108265,-8.671143,Portugal,VRAI,FAUX,FAUX
Portimao,37.13856,-8.53775,Portugal,VRAI,FAUX,FAUX
Beja,38.009623,-7.858997,Portugal,VRAI,FAUX,FAUX
Celorico da Beira,40.6335005,-7.3927217,Portugal,VRAI,FAUX,FAUX
Faro,37.019187,-7.940261,Portugal,VRAI,FAUX,FAUX
Lisboa,38.71387,-9.122271,Portugal,VRAI,FAUX,FAUX
Torres Vedras,39.092739,-9.265706,Portugal,VRAI,FAUX,FAUX
Luxembourg,NA,NA,Luxembourg,VRAI,FAUX,FAUX
Lexy,NA,NA,France,VRAI,FAUX,FAUX
Albas,NA,NA,France,VRAI,FAUX,FAUX
Acheres,48.966667,2.066667,France,VRAI,FAUX,FAUX
St-Denis,48.933333,2.366667,France,VRAI,FAUX,FAUX
Orly,48.75,2.4,France,VRAI,FAUX,FAUX
Philippsbourg,NA,NA,France,VRAI,FAUX,FAUX
Bouzonville,NA,NA,France,VRAI,FAUX,FAUX
Ebersviller,NA,NA,France,VRAI,FAUX,FAUX
Kedange,NA,NA,France,VRAI,FAUX,FAUX
Kuntzig,NA,NA,France,VRAI,FAUX,FAUX
Rohrbach-les-Bitche,NA,NA,France,VRAI,FAUX,FAUX
Enchenberg,NA,NA,France,VRAI,FAUX,FAUX
Piene-Basse,NA,NA,France,VRAI,FAUX,FAUX
Guzet-Neige,NA,NA,France,VRAI,FAUX,FAUX
Barenton,NA,NA,France,VRAI,FAUX,FAUX
Calvi,NA,NA,France,VRAI,FAUX,FAUX
Tulle,NA,NA,France,VRAI,FAUX,FAUX
Dompierre-sur-Mer,NA,NA,France,VRAI,FAUX,FAUX
Magnieres,NA,NA,France,VRAI,FAUX,FAUX
Ste-Maxime,43.309066,6.638489,France,VRAI,FAUX,FAUX
Sezanne,48.716667,3.716667,France,VRAI,FAUX,FAUX
Farebersviller,NA,NA,France,VRAI,FAUX,FAUX
Farschviller,NA,NA,France,VRAI,FAUX,FAUX
Brignoles,43.4,6.066667,France,VRAI,FAUX,FAUX
St-Sebastien-sur-Loire,47.207682,-1.503325,France,VRAI,FAUX,FAUX
Laroche-St-Cydroine,47.966667,3.516667,France,VRAI,FAUX,FAUX
Brienon,48,3.616667,France,VRAI,FAUX,FAUX
Nanterre,48.9,2.2,France,VRAI,FAUX,FAUX
Issy-les-Moulineaux,48.816667,2.266667,France,VRAI,FAUX,FAUX
Trappes,NA,NA,France,VRAI,FAUX,FAUX
Pithiviers,48.166667,2.25,France,VRAI,FAUX,FAUX
Domancy,45.9127,6.6485,France,VRAI,FAUX,FAUX
Cahors,NA,NA,France,VRAI,FAUX,FAUX
Port-St-Pere,47.133333,-1.75,France,VRAI,FAUX,FAUX
Mazamet,NA,NA,France,VRAI,FAUX,FAUX
Morhange,NA,NA,France,VRAI,FAUX,FAUX
Ermont,48.983333,2.266667,France,VRAI,FAUX,FAUX
Honfleur,49.419852,0.232944,France,VRAI,FAUX,FAUX
Perros-Guirec,48.816667,-3.45,France,VRAI,FAUX,FAUX
La Grande-Motte,43.566667,4.083333,France,VRAI,FAUX,FAUX
Lavaur,NA,NA,France,VRAI,FAUX,FAUX
Sevres,48.816667,2.2,France,VRAI,FAUX,FAUX
Chaville,48.8,2.2,France,VRAI,FAUX,FAUX
Viroflay,NA,NA,France,VRAI,FAUX,FAUX
Val-d'Isere,45.4491,6.9798,France,VRAI,FAUX,FAUX
Luneville,NA,NA,France,VRAI,FAUX,FAUX
Biscarrosse,44.3943,-1.1661,France,VRAI,FAUX,FAUX
Zuydcoote,NA,NA,France,VRAI,FAUX,FAUX
Nogent-sur-Loir,48.383333,1.366667,France,VRAI,FAUX,FAUX
Pontivy,NA,NA,France,VRAI,FAUX,FAUX
Douarnenez,48.095423,-4.329042,France,VRAI,FAUX,FAUX
Cerences,48.916667,-1.4347,France,VRAI,FAUX,FAUX
Fenetrange,NA,NA,France,VRAI,FAUX,FAUX
Chatel-Guyon,45.916667,3.066667,France,VRAI,FAUX,FAUX
Luzech,NA,NA,France,VRAI,FAUX,FAUX
Puy-l'Eveque,NA,NA,France,VRAI,FAUX,FAUX
Cergy,49.033333,2.066667,France,VRAI,FAUX,FAUX
Auxon,NA,NA,France,VRAI,FAUX,FAUX
Douelle,NA,NA,France,VRAI,FAUX,FAUX
Ventimiglia,NA,NA,Italie,VRAI,FAUX,FAUX
Mittersheim,NA,NA,France,VRAI,FAUX,FAUX
Lacanau,44.983333,-1.083333,France,VRAI,FAUX,FAUX
Maffliers,NA,NA,France,VRAI,FAUX,FAUX
Sarraltroff,NA,NA,France,VRAI,FAUX,FAUX
La Defense,NA,NA,France,VRAI,FAUX,FAUX
La Seyne-sur-Mer,43.1,5.883333,France,VRAI,FAUX,FAUX
Evry,48.633333,2.45,France,VRAI,FAUX,FAUX
Pussay,48.35,2,France,VRAI,FAUX,FAUX
Deauville,49.356998,0.069952,France,VRAI,FAUX,FAUX
Le Merlerault,NA,NA,France,VRAI,FAUX,FAUX
Ecouche,NA,NA,France,VRAI,FAUX,FAUX
Cabourg,49.291098,-0.113297,France,VRAI,FAUX,FAUX
Creteil,48.8,2.416667,France,VRAI,FAUX,FAUX
Chablis,47.816667,3.8,France,VRAI,FAUX,FAUX
Egletons,45.4,2.05,France,VRAI,FAUX,FAUX
Falaise,48.9,-0.2,France,VRAI,FAUX,FAUX
Maurepas,48.766667,1.916667,France,VRAI,FAUX,FAUX
Orgeval,48.916667,1.983333,France,VRAI,FAUX,FAUX
Ouistreham,49.283333,-0.25,France,VRAI,FAUX,FAUX
Omaha-Beach,NA,NA,France,VRAI,FAUX,FAUX
Saclay,48.733333,2.166667,France,VRAI,FAUX,FAUX
St-Cyprien,42.616667,3.033333,France,VRAI,FAUX,FAUX
Senard,NA,NA,France,VRAI,FAUX,FAUX
Briey,49.25,5.933333,France,VRAI,FAUX,FAUX
Innsbruck,47.2854337,11.3087505,Autriche,VRAI,FAUX,FAUX
Figueras (Figueres),NA,NA,Espagne,VRAI,FAUX,FAUX
Rzepin,52.350139,14.815171,Pologne,VRAI,FAUX,FAUX
Minsk,53.868712,27.651025,Bielorussie,VRAI,FAUX,FAUX
Warszawa,52.232855,20.9211119,Pologne,VRAI,FAUX,FAUX
Saarbrucken,49.24115221039208,6.990984678268433,Allemagne,VRAI,FAUX,FAUX
La Motte,NA,NA,France,VRAI,FAUX,FAUX
Niederbronn,NA,NA,France,VRAI,FAUX,FAUX
Neufchateau,NA,NA,France,VRAI,FAUX,FAUX
Pons,NA,NA,France,VRAI,FAUX,FAUX
Roville aux Chenes,NA,NA,France,VRAI,FAUX,FAUX
Romorantin,NA,NA,France,VRAI,FAUX,FAUX
Remiremont,NA,NA,France,VRAI,FAUX,FAUX
Reignac,NA,NA,France,VRAI,FAUX,FAUX
Saulxures,NA,NA,France,VRAI,FAUX,FAUX
Toul,NA,NA,France,VRAI,FAUX,FAUX
Aschaffenburg,49.980554,9.143692,Allemagne,VRAI,FAUX,FAUX
Laroquebrou,NA,NA,France,VRAI,FAUX,FAUX
Lauterbourg,NA,NA,France,VRAI,FAUX,FAUX
Labruguiere,NA,NA,France,VRAI,FAUX,FAUX
Mauriac,NA,NA,France,VRAI,FAUX,FAUX
Mantes la Jolie,NA,NA,France,VRAI,FAUX,FAUX
Lunery,NA,NA,France,VRAI,FAUX,FAUX
Louviers,NA,NA,France,VRAI,FAUX,FAUX
Loures,NA,NA,France,VRAI,FAUX,FAUX
Lezoux,45.82742,3.38142,France,VRAI,FAUX,FAUX
Morlaix,NA,NA,France,VRAI,FAUX,FAUX
Montauban,NA,NA,France,VRAI,FAUX,FAUX
Montastruc,NA,NA,France,VRAI,FAUX,FAUX
Montargis,NA,NA,France,VRAI,FAUX,FAUX
Mirande,NA,NA,France,VRAI,FAUX,FAUX
Meursault,NA,NA,France,VRAI,FAUX,FAUX
Meulan,NA,NA,France,VRAI,FAUX,FAUX
Pontgibaud,NA,NA,France,VRAI,FAUX,FAUX
Paulhaguet,NA,NA,France,VRAI,FAUX,FAUX
Saint-Lye,NA,NA,France,VRAI,FAUX,FAUX
Ax-les-Thermes,NA,NA,France,VRAI,FAUX,FAUX
Anzeling,NA,NA,France,VRAI,FAUX,FAUX
Amiens,49.894144,2.296565,France,VRAI,FAUX,FAUX
Albias,NA,NA,France,VRAI,FAUX,FAUX
Aire-sur-l'Adour,NA,NA,France,VRAI,FAUX,FAUX
Beziers,NA,NA,France,VRAI,FAUX,FAUX
Benestroff,NA,NA,France,VRAI,FAUX,FAUX
Belfort-Montbeliard,NA,NA,France,VRAI,FAUX,FAUX
Barisey-la-Cote,NA,NA,France,VRAI,FAUX,FAUX
Castres,NA,NA,France,VRAI,FAUX,FAUX
Castelnaudary,NA,NA,France,VRAI,FAUX,FAUX
Carcassonne,NA,NA,France,VRAI,FAUX,FAUX
Brouvelieures,NA,NA,France,VRAI,FAUX,FAUX
Gosselming,NA,NA,France,VRAI,FAUX,FAUX
Gerbeviller Lo,NA,NA,France,VRAI,FAUX,FAUX
Foix,NA,NA,France,VRAI,FAUX,FAUX
Distroff,NA,NA,France,VRAI,FAUX,FAUX
Keskastel,NA,NA,France,VRAI,FAUX,FAUX
Gundershoffen,NA,NA,France,VRAI,FAUX,FAUX
Les Cabannes,NA,NA,France,VRAI,FAUX,FAUX
Lavilledieu,NA,NA,France,VRAI,FAUX,FAUX
Lavelanet,NA,NA,France,VRAI,FAUX,FAUX
Metzervisse,NA,NA,France,VRAI,FAUX,FAUX
Pamiers,NA,NA,France,VRAI,FAUX,FAUX
Saint-Flour,NA,NA,France,VRAI,FAUX,FAUX
Rupt Moselle,NA,NA,France,VRAI,FAUX,FAUX
Riom,NA,NA,France,VRAI,FAUX,FAUX
Rehon,NA,NA,France,VRAI,FAUX,FAUX
Rechicourt,NA,NA,France,VRAI,FAUX,FAUX
Reichshoffen,NA,NA,France,VRAI,FAUX,FAUX
Sisteron,NA,NA,France,VRAI,FAUX,FAUX
Sellieres,NA,NA,France,VRAI,FAUX,FAUX
Schweighouse,NA,NA,France,VRAI,FAUX,FAUX
Schopperten,NA,NA,France,VRAI,FAUX,FAUX
Sarrewerden,NA,NA,France,VRAI,FAUX,FAUX
Sarre Union,NA,NA,France,VRAI,FAUX,FAUX
Salechan,NA,NA,France,VRAI,FAUX,FAUX
Saint-Sauve,NA,NA,France,VRAI,FAUX,FAUX
Saint-Jean de Monts,NA,NA,France,VRAI,FAUX,FAUX
Tournon,NA,NA,France,VRAI,FAUX,FAUX
Toulon,NA,NA,France,VRAI,FAUX,FAUX
Ussel,NA,NA,France,VRAI,FAUX,FAUX
Vougeot,NA,NA,France,VRAI,FAUX,FAUX
Villeneuve de Berg,NA,NA,France,VRAI,FAUX,FAUX
Villefranche-sur-Cher,NA,NA,France,VRAI,FAUX,FAUX
Villefranche Lauragais,NA,NA,France,VRAI,FAUX,FAUX
Villefranche-de-Rouergue,NA,NA,France,VRAI,FAUX,FAUX
Vernet d'Ariege,NA,NA,France,VRAI,FAUX,FAUX
Saint-Maurice,NA,NA,France,VRAI,FAUX,FAUX
Mattaincourt,NA,NA,France,VRAI,FAUX,FAUX
Carhaix-Plouguer,48.2765,-3.5716,France,VRAI,FAUX,FAUX
Audun-le-Roman,NA,NA,France,VRAI,FAUX,FAUX
Ancenis,NA,NA,France,VRAI,FAUX,FAUX
Barbezieux,NA,NA,France,VRAI,FAUX,FAUX
Chatillon-sur-Seine,NA,NA,France,VRAI,FAUX,FAUX
Brioude,NA,NA,France,VRAI,FAUX,FAUX
Cornimont,NA,NA,France,VRAI,FAUX,FAUX
Conflans,NA,NA,France,VRAI,FAUX,FAUX
Fresse,NA,NA,France,VRAI,FAUX,FAUX
Dompaire,NA,NA,France,VRAI,FAUX,FAUX
Dommartin,NA,NA,France,VRAI,FAUX,FAUX
La Bresse,NA,NA,France,VRAI,FAUX,FAUX
Jonzac,NA,NA,France,VRAI,FAUX,FAUX
Issoire,NA,NA,France,VRAI,FAUX,FAUX
Igney-Avricourt,NA,NA,France,VRAI,FAUX,FAUX
Hielle,NA,NA,France,VRAI,FAUX,FAUX
Le Thillot,NA,NA,France,VRAI,FAUX,FAUX
Aube,NA,NA,France,VRAI,FAUX,FAUX
Ambert,NA,NA,France,VRAI,FAUX,FAUX
Bourges,NA,NA,France,VRAI,FAUX,FAUX
Bois d'Oingt,NA,NA,France,VRAI,FAUX,FAUX
Blesme,NA,NA,France,VRAI,FAUX,FAUX
Bessay,NA,NA,France,VRAI,FAUX,FAUX
Champagnole,NA,NA,France,VRAI,FAUX,FAUX
Bussang,NA,NA,France,VRAI,FAUX,FAUX
Bretigny,NA,NA,France,VRAI,FAUX,FAUX
Bretenoux-Biars,NA,NA,France,VRAI,FAUX,FAUX
Cormery,NA,NA,France,VRAI,FAUX,FAUX
Corgoloin,NA,NA,France,VRAI,FAUX,FAUX
Cloyes,NA,NA,France,VRAI,FAUX,FAUX
Gramat,NA,NA,France,VRAI,FAUX,FAUX
Gargenville,NA,NA,France,VRAI,FAUX,FAUX
Eloy,NA,NA,France,VRAI,FAUX,FAUX
Dunieres,NA,NA,France,VRAI,FAUX,FAUX
Juvisy-sur-Orge,NA,NA,France,VRAI,FAUX,FAUX
Guiscriff,NA,NA,France,VRAI,FAUX,FAUX
Gueret,NA,NA,France,VRAI,FAUX,FAUX
Le Breuil-sur-Couze,NA,NA,France,VRAI,FAUX,FAUX
Montmorillon,NA,NA,France,VRAI,FAUX,FAUX
Pontmort,NA,NA,France,VRAI,FAUX,FAUX
Pont-du-Chateau,NA,NA,France,VRAI,FAUX,FAUX
Plaintel,NA,NA,France,VRAI,FAUX,FAUX
Nonant,NA,NA,France,VRAI,FAUX,FAUX
St-Florent-sur-Cher,NA,NA,France,VRAI,FAUX,FAUX
Ste-Christie,NA,NA,France,VRAI,FAUX,FAUX
Ruffec,NA,NA,France,VRAI,FAUX,FAUX
Rennes,NA,NA,France,VRAI,FAUX,FAUX
Quintin,NA,NA,France,VRAI,FAUX,FAUX
Puy-Guillaume,NA,NA,France,VRAI,FAUX,FAUX
Prayssac,NA,NA,France,VRAI,FAUX,FAUX
Saint-Girons,NA,NA,France,VRAI,FAUX,FAUX
Saint-Germain-en-Laye,NA,NA,France,VRAI,FAUX,FAUX
Touzac,NA,NA,France,VRAI,FAUX,FAUX
Carmaux,NA,NA,France,VRAI,FAUX,FAUX
Courcay,NA,NA,France,VRAI,FAUX,FAUX
Coulommiers,NA,NA,France,VRAI,FAUX,FAUX
Vatimont,NA,NA,France,VRAI,FAUX,FAUX
Varilhes,NA,NA,France,VRAI,FAUX,FAUX
Regensburg,49.011669,12.099615,Allemagne,VRAI,FAUX,FAUX
Hildesheim,52.160627,9.953494,Allemagne,VRAI,FAUX,FAUX
Bielefeld,52.01847,8.528143,Allemagne,VRAI,FAUX,FAUX
Kaiserslautern,49.4268635,7.6789419,Allemagne,VRAI,FAUX,FAUX
Passau,48.5769355,13.3733466,Allemagne,VRAI,FAUX,FAUX
Oberhausen,NA,NA,Allemagne,VRAI,FAUX,FAUX
Nurnberg,49.445615,11.082989,Allemagne,VRAI,FAUX,FAUX
Essen,51.451351,7.014795,Allemagne,VRAI,FAUX,FAUX
Duisburg,51.429786,6.775906,Allemagne,VRAI,FAUX,FAUX
Dortmund,51.517898,7.459293,Allemagne,VRAI,FAUX,FAUX
Augsburg,48.365444,10.885568,Allemagne,VRAI,FAUX,FAUX
Pontchateau,NA,NA,France,VRAI,FAUX,FAUX
Uzel,NA,NA,France,VRAI,FAUX,FAUX
Kassel,NA,NA,France,VRAI,FAUX,FAUX
Ulm,48.399432,9.982224,Allemagne,VRAI,FAUX,FAUX
Wurzburg,49.801794,9.935777,Allemagne,VRAI,FAUX,FAUX
Limburg,NA,NA,Allemagne,VRAI,FAUX,FAUX
Thayngen,47.74553,8.70323,Suisse,VRAI,FAUX,FAUX
Krauthausen,50.878657,6.423269,Allemagne,VRAI,FAUX,FAUX
Schkeuditz,51.402387,12.222165,Allemagne,VRAI,FAUX,FAUX
Wieck (Darss),54.4093936,12.5809999,Allemagne,VRAI,FAUX,FAUX
Jena,50.924008,11.582726,Allemagne,VRAI,FAUX,FAUX
Leipzig,51.346546,12.383333,Allemagne,VRAI,FAUX,FAUX
Kassel,51.315946,9.470378,Allemagne,VRAI,FAUX,FAUX
Bertren,NA,NA,France,VRAI,FAUX,FAUX
Beaupuy,NA,NA,France,VRAI,FAUX,FAUX
Dracy Saint-Loup,47.006203,4.351408,France,VRAI,FAUX,FAUX
La Ferte-Gaucher,NA,NA,France,VRAI,FAUX,FAUX
Fouesnant,NA,NA,France,VRAI,FAUX,FAUX
Espere,NA,NA,France,VRAI,FAUX,FAUX
La Chatre,NA,NA,France,VRAI,FAUX,FAUX
Labastide,NA,NA,France,VRAI,FAUX,FAUX
La Chaise Dieu,NA,NA,France,VRAI,FAUX,FAUX
Henvic,NA,NA,France,VRAI,FAUX,FAUX
Jouy Morin,NA,NA,France,VRAI,FAUX,FAUX
Villeneuve 05,NA,NA,France,VRAI,FAUX,FAUX
Alba,NA,NA,France,VRAI,FAUX,FAUX
Gaillac,NA,NA,France,VRAI,FAUX,FAUX
Naucelle,NA,NA,France,VRAI,FAUX,FAUX
Rodez,NA,NA,France,VRAI,FAUX,FAUX
Tanus,NA,NA,France,VRAI,FAUX,FAUX
Bourg Lastice,NA,NA,France,VRAI,FAUX,FAUX
Revel,NA,NA,France,VRAI,FAUX,FAUX
Ribeauville,NA,NA,France,VRAI,FAUX,FAUX
Saint-Cernin,NA,NA,France,VRAI,FAUX,FAUX
Serrigny,NA,NA,France,VRAI,FAUX,FAUX
Saulieu,NA,NA,France,VRAI,FAUX,FAUX
Portet-Saint-Simon,NA,NA,France,VRAI,FAUX,FAUX
Pins-Justaret,NA,NA,France,VRAI,FAUX,FAUX
Saverdun,NA,NA,France,VRAI,FAUX,FAUX
Saint-Jean de Verges,NA,NA,France,VRAI,FAUX,FAUX
Ste-Florine,NA,NA,France,VRAI,FAUX,FAUX
Saint-Paul,NA,NA,France,VRAI,FAUX,FAUX
Tarascon-sur-Ariege,NA,NA,France,VRAI,FAUX,FAUX
Luzenac,NA,NA,France,VRAI,FAUX,FAUX
Trilport,NA,NA,France,VRAI,FAUX,FAUX
Erce,NA,NA,France,VRAI,FAUX,FAUX
Lacourt,NA,NA,France,VRAI,FAUX,FAUX
Merens-les-Vals,NA,NA,France,VRAI,FAUX,FAUX
Porte-Puymorens,NA,NA,France,VRAI,FAUX,FAUX
Villecomtal,NA,NA,France,VRAI,FAUX,FAUX
Verfeil,NA,NA,France,VRAI,FAUX,FAUX
Dreffeac,NA,NA,France,VRAI,FAUX,FAUX
Bouligny,NA,NA,France,VRAI,FAUX,FAUX
Bruyeres,NA,NA,France,VRAI,FAUX,FAUX
Rambervilers,NA,NA,France,VRAI,FAUX,FAUX
Domgermain,NA,NA,France,VRAI,FAUX,FAUX
Frebecourt,NA,NA,France,VRAI,FAUX,FAUX
Vaucouleurs,NA,NA,France,VRAI,FAUX,FAUX
Darnieulles,NA,NA,France,VRAI,FAUX,FAUX
Marville,NA,NA,France,VRAI,FAUX,FAUX
Villette,NA,NA,France,VRAI,FAUX,FAUX
Cocheren,NA,NA,France,VRAI,FAUX,FAUX
Griesbach,NA,NA,France,VRAI,FAUX,FAUX
Avricourt,NA,NA,France,VRAI,FAUX,FAUX
Gondrexange,NA,NA,France,VRAI,FAUX,FAUX
Welferding,NA,NA,France,VRAI,FAUX,FAUX
St-Yorre,NA,NA,France,VRAI,FAUX,FAUX
Gray,NA,NA,France,VRAI,FAUX,FAUX
Agen,NA,NA,France,VRAI,FAUX,FAUX
Albine,NA,NA,France,VRAI,FAUX,FAUX
Anglars,NA,NA,France,VRAI,FAUX,FAUX
Argeles-Gazost,NA,NA,France,VRAI,FAUX,FAUX
Arzviller,NA,NA,France,VRAI,FAUX,FAUX
Roye,NA,NA,France,VRAI,FAUX,FAUX
Rozoy-sur-Serre,NA,NA,France,VRAI,FAUX,FAUX
Zagreb,45.804453,15.978478,Croatie,VRAI,FAUX,FAUX
Wilderswil,46.665701,7.869471,Suisse,VRAI,FAUX,FAUX
Kloten,47.448203,8.583367,Suisse,VRAI,FAUX,FAUX
Horgen,47.261587,8.596968,Suisse,VRAI,FAUX,FAUX
Brig,46.319418,7.988084,Suisse,VRAI,FAUX,FAUX
Linz,48.290249,14.291518,Autriche,VRAI,FAUX,FAUX
Praha,50.081925,14.451481,République Tchèque,VRAI,FAUX,FAUX
Erlenbach ZH,47.305778,8.591512,Suisse,VRAI,FAUX,FAUX
Glattbrugg,47.430629,8.558692,Suisse,VRAI,FAUX,FAUX
Schlieren,47.399337,8.446938,Suisse,VRAI,FAUX,FAUX
Engelberg,46.819506,8.402684,Suisse,VRAI,FAUX,FAUX
Arosa,46.783298,9.679332,Suisse,VRAI,FAUX,FAUX
Budapest,47.51955,19.054084,Hongrie,VRAI,FAUX,FAUX
Olbia,40.924974,9.498658,Italie,VRAI,FAUX,FAUX
Taranto,40.483486,17.224311,Italie,VRAI,FAUX,FAUX
Lecce (citta),40.345799,18.165815,Italie,VRAI,FAUX,FAUX
Bara,40.2818878,8.7305659,Italie,VRAI,FAUX,FAUX
Bari,41.1257843,16.8620293,Italie,VRAI,FAUX,FAUX
Benevento (citta),41.14175621597,14.770131111145018,Italie,VRAI,FAUX,FAUX
Bologna,44.493681377379744,11.343169212341309,Italie,VRAI,FAUX,FAUX
